[
    {
        "name": "ABAGO",
        "lat": 56.29195277777777,
        "lon": 144.23810555555553
    },
    {
        "name": "ABALI",
        "lat": 55.54535555555555,
        "lon": 68.02048611111111
    },
    {
        "name": "ABARA",
        "lat": 61.18359722222222,
        "lon": 50.84807222222222
    },
    {
        "name": "ABARO",
        "lat": 52.12339166666667,
        "lon": 48.561769444444444
    },
    {
        "name": "ABATA",
        "lat": 70.00065833333333,
        "lon": 135.66858888888888
    },
    {
        "name": "ABDAD",
        "lat": 60.20218888888889,
        "lon": 128.72107222222223
    },
    {
        "name": "ABDAG",
        "lat": 69.45407222222222,
        "lon": 125.95803611111111
    },
    {
        "name": "ABDIR",
        "lat": 57.52166666666667,
        "lon": 60.608333333333334
    },
    {
        "name": "ABEDO",
        "lat": 59.96834166666667,
        "lon": 35.832819444444446
    },
    {
        "name": "ABELA",
        "lat": 44.1915,
        "lon": 42.600233333333335
    },
    {
        "name": "ABELO",
        "lat": 61.94379166666666,
        "lon": 64.8918
    },
    {
        "name": "ABERI",
        "lat": 87.5,
        "lon": 32.0
    },
    {
        "name": "ABESA",
        "lat": 54.92708888888889,
        "lon": 77.62747222222221
    },
    {
        "name": "ABGAR",
        "lat": 69.60499999999999,
        "lon": 58.465
    },
    {
        "name": "ABGEL",
        "lat": 55.770491666666665,
        "lon": 118.11891666666666
    },
    {
        "name": "ABGIL",
        "lat": 62.32716111111112,
        "lon": 67.72188333333334
    },
    {
        "name": "ABGIR",
        "lat": 57.41684166666666,
        "lon": 154.67175555555554
    },
    {
        "name": "ABIGA",
        "lat": 60.29833333333333,
        "lon": 90.92666666666668
    },
    {
        "name": "ABILA",
        "lat": 67.54175833333333,
        "lon": 170.8612388888889
    },
    {
        "name": "ABINA",
        "lat": 64.36805555555554,
        "lon": -171.76391944444444
    },
    {
        "name": "ABITI",
        "lat": 56.14371666666666,
        "lon": 69.65218333333334
    },
    {
        "name": "ABLAR",
        "lat": 63.08357222222222,
        "lon": 46.89283611111111
    },
    {
        "name": "ABLAS",
        "lat": 55.702194444444444,
        "lon": 105.04343888888889
    },
    {
        "name": "ABLER",
        "lat": 56.401666666666664,
        "lon": 77.515
    },
    {
        "name": "ABLOG",
        "lat": 47.809999999999995,
        "lon": 40.38166666666667
    },
    {
        "name": "ABLOR",
        "lat": 53.48339722222222,
        "lon": 47.08169166666667
    },
    {
        "name": "ABMET",
        "lat": 53.95011944444445,
        "lon": 50.49507777777778
    },
    {
        "name": "ABOBI",
        "lat": 67.94665833333333,
        "lon": 176.69139166666668
    },
    {
        "name": "ABODI",
        "lat": 60.61034166666667,
        "lon": 57.46995833333334
    },
    {
        "name": "ABOKO",
        "lat": 68.52666666666667,
        "lon": 167.58333333333334
    },
    {
        "name": "ABOLI",
        "lat": 55.88718611111111,
        "lon": 111.38200833333333
    },
    {
        "name": "ABOMA",
        "lat": 53.48354166666667,
        "lon": 145.91805277777777
    },
    {
        "name": "ABORI",
        "lat": 49.74188888888889,
        "lon": 136.6777111111111
    },
    {
        "name": "ABREN",
        "lat": 63.24398611111111,
        "lon": 84.63920277777778
    },
    {
        "name": "ABRIN",
        "lat": 59.22027222222222,
        "lon": 150.1733972222222
    },
    {
        "name": "ABUMI",
        "lat": 65.95,
        "lon": 111.51666666666667
    },
    {
        "name": "ABURI",
        "lat": 58.080222222222226,
        "lon": 52.173275
    },
    {
        "name": "ABUSA",
        "lat": 51.965,
        "lon": 101.69
    },
    {
        "name": "ABUTO",
        "lat": 52.988197222222226,
        "lon": 33.87316111111111
    },
    {
        "name": "ADAGI",
        "lat": 56.87358888888889,
        "lon": 56.44843888888889
    },
    {
        "name": "ADALU",
        "lat": 66.17851944444445,
        "lon": 164.15760277777778
    },
    {
        "name": "ADAPA",
        "lat": 52.68711666666666,
        "lon": 108.1135361111111
    },
    {
        "name": "ADAPI",
        "lat": 50.75832777777778,
        "lon": 45.590094444444446
    },
    {
        "name": "ADASO",
        "lat": 59.24727222222222,
        "lon": 95.67473611111112
    },
    {
        "name": "ADEGI",
        "lat": 56.293861111111106,
        "lon": 92.08795833333333
    },
    {
        "name": "ADELI",
        "lat": 59.47694166666667,
        "lon": 54.036586111111106
    },
    {
        "name": "ADERI",
        "lat": 59.60166666666667,
        "lon": 127.66833333333334
    },
    {
        "name": "ADIDA",
        "lat": 51.57666666666667,
        "lon": 104.57166666666666
    },
    {
        "name": "ADIRI",
        "lat": 71.01911111111112,
        "lon": 79.54192499999999
    },
    {
        "name": "ADISA",
        "lat": 61.41689722222222,
        "lon": 48.346325
    },
    {
        "name": "ADITO",
        "lat": 50.45019166666667,
        "lon": 141.5011861111111
    },
    {
        "name": "ADLEM",
        "lat": 43.40311944444444,
        "lon": 39.94688055555555
    },
    {
        "name": "ADLEN",
        "lat": 64.773025,
        "lon": -169.78220555555558
    },
    {
        "name": "ADMUR",
        "lat": 59.823797222222225,
        "lon": 69.60539166666666
    },
    {
        "name": "ADOLI",
        "lat": 67.34245555555555,
        "lon": 103.46507222222222
    },
    {
        "name": "ADONI",
        "lat": 56.32885,
        "lon": 88.8978388888889
    },
    {
        "name": "ADUGA",
        "lat": 45.565,
        "lon": 39.59166666666667
    },
    {
        "name": "ADUTA",
        "lat": 57.575,
        "lon": 51.79833333333333
    },
    {
        "name": "AGABI",
        "lat": 51.995400000000004,
        "lon": 118.69721666666668
    },
    {
        "name": "AGADA",
        "lat": 70.20584166666667,
        "lon": 108.19370277777779
    },
    {
        "name": "AGAMO",
        "lat": 63.14665,
        "lon": 31.262508333333333
    },
    {
        "name": "AGAPO",
        "lat": 48.245,
        "lon": 137.20499999999998
    },
    {
        "name": "AGARU",
        "lat": 59.88539166666666,
        "lon": 62.95183333333333
    },
    {
        "name": "AGATO",
        "lat": 42.26653611111111,
        "lon": 48.53870277777778
    },
    {
        "name": "AGEMA",
        "lat": 54.365497222222224,
        "lon": 102.38500833333335
    },
    {
        "name": "AGEMI",
        "lat": 60.500525,
        "lon": 74.99889722222223
    },
    {
        "name": "AGEMO",
        "lat": 56.12193888888889,
        "lon": 145.2531277777778
    },
    {
        "name": "AGERO",
        "lat": 53.66353888888889,
        "lon": 57.84026111111111
    },
    {
        "name": "AGINO",
        "lat": 51.10039722222222,
        "lon": 114.53373888888889
    },
    {
        "name": "AGITA",
        "lat": 42.32675555555556,
        "lon": 132.197475
    },
    {
        "name": "AGLUR",
        "lat": 53.745,
        "lon": 39.065
    },
    {
        "name": "AGMAR",
        "lat": 53.501775,
        "lon": 50.15342222222222
    },
    {
        "name": "AGMUS",
        "lat": 60.96333333333334,
        "lon": 65.97666666666667
    },
    {
        "name": "AGNER",
        "lat": 63.52166666666667,
        "lon": 54.61333333333334
    },
    {
        "name": "AGOLA",
        "lat": 45.79987222222222,
        "lon": 43.31520277777778
    },
    {
        "name": "AGOTI",
        "lat": 58.68385277777777,
        "lon": 79.68245833333334
    },
    {
        "name": "AGUBI",
        "lat": 55.32,
        "lon": 148.48833333333332
    },
    {
        "name": "AGUKA",
        "lat": 54.760441666666665,
        "lon": 123.1457388888889
    },
    {
        "name": "AGUKI",
        "lat": 65.24851944444444,
        "lon": 41.054174999999994
    },
    {
        "name": "AGUNI",
        "lat": 46.82666666666667,
        "lon": 135.61833333333334
    },
    {
        "name": "AGURI",
        "lat": 71.065,
        "lon": 159.13
    },
    {
        "name": "AKADA",
        "lat": 61.80023611111111,
        "lon": 48.227961111111114
    },
    {
        "name": "AKANI",
        "lat": 56.321850000000005,
        "lon": 152.54665555555556
    },
    {
        "name": "AKARU",
        "lat": 65.26666666666667,
        "lon": 100.42
    },
    {
        "name": "AKASI",
        "lat": 55.61524722222222,
        "lon": 57.93019444444444
    },
    {
        "name": "AKATA",
        "lat": 59.89225555555556,
        "lon": 117.41895833333334
    },
    {
        "name": "AKATI",
        "lat": 70.13677222222223,
        "lon": 31.980036111111108
    },
    {
        "name": "AKESI",
        "lat": 53.95515833333334,
        "lon": 53.51181111111111
    },
    {
        "name": "AKODA",
        "lat": 54.36674722222222,
        "lon": 47.08332222222223
    },
    {
        "name": "AKOLA",
        "lat": 48.60016666666667,
        "lon": 140.18444444444444
    },
    {
        "name": "AKTAS",
        "lat": 50.317036111111115,
        "lon": 87.58286388888888
    },
    {
        "name": "ALABO",
        "lat": 43.20489166666667,
        "lon": 48.86535555555556
    },
    {
        "name": "ALAGI",
        "lat": 58.03370833333333,
        "lon": 64.78196666666666
    },
    {
        "name": "ALEGI",
        "lat": 44.72485,
        "lon": 42.998558333333335
    },
    {
        "name": "ALIRO",
        "lat": 54.033763888888885,
        "lon": 82.30764444444443
    },
    {
        "name": "ALISA",
        "lat": 64.11175277777777,
        "lon": 36.26584166666667
    },
    {
        "name": "ALMAR",
        "lat": 45.21655277777778,
        "lon": 45.215247222222224
    },
    {
        "name": "ALNB",
        "lat": 53.683324999999996,
        "lon": 41.68158333333333
    },
    {
        "name": "ALOGA",
        "lat": 60.600522222222224,
        "lon": 74.3322
    },
    {
        "name": "ALUPI",
        "lat": 62.175,
        "lon": 134.78833333333333
    },
    {
        "name": "ALURI",
        "lat": 58.050025,
        "lon": 38.84798888888889
    },
    {
        "name": "ALUTI",
        "lat": 59.72178888888889,
        "lon": 43.167975
    },
    {
        "name": "AMABI",
        "lat": 57.28990833333333,
        "lon": 32.394597222222224
    },
    {
        "name": "AMASA",
        "lat": 57.6952,
        "lon": 153.3034027777778
    },
    {
        "name": "AMATA",
        "lat": 46.88321111111111,
        "lon": 42.281825
    },
    {
        "name": "AMBAR",
        "lat": 54.550438888888884,
        "lon": 122.51738333333333
    },
    {
        "name": "AMDOR",
        "lat": 56.29986944444444,
        "lon": 30.997966666666667
    },
    {
        "name": "AMERA",
        "lat": 50.22196944444445,
        "lon": 128.14581666666666
    },
    {
        "name": "AMETO",
        "lat": 58.36021111111111,
        "lon": 153.34343611111112
    },
    {
        "name": "AMGUT",
        "lat": 62.93663055555555,
        "lon": 173.99082222222222
    },
    {
        "name": "AMIBI",
        "lat": 58.460575000000006,
        "lon": 113.33377499999999
    },
    {
        "name": "AMKAT",
        "lat": 51.43,
        "lon": 36.87833333333333
    },
    {
        "name": "AMOTI",
        "lat": 55.95051111111111,
        "lon": 89.04951666666666
    },
    {
        "name": "AMRAD",
        "lat": 53.30041666666666,
        "lon": 82.99934722222223
    },
    {
        "name": "AMUPI",
        "lat": 50.408569444444446,
        "lon": 136.9344
    },
    {
        "name": "AMUTA",
        "lat": 50.3754,
        "lon": 104.87508888888888
    },
    {
        "name": "AMUTI",
        "lat": 50.35666666666667,
        "lon": 42.19
    },
    {
        "name": "ANAGO",
        "lat": 53.836913888888894,
        "lon": 143.16465833333334
    },
    {
        "name": "ANAKA",
        "lat": 45.001447222222225,
        "lon": 37.346808333333335
    },
    {
        "name": "ANAMI",
        "lat": 67.09075277777778,
        "lon": 88.21759722222222
    },
    {
        "name": "ANDAT",
        "lat": 59.516819444444444,
        "lon": 45.49803888888889
    },
    {
        "name": "ANEPA",
        "lat": 67.4053138888889,
        "lon": 46.702447222222226
    },
    {
        "name": "ANEPO",
        "lat": 55.016930555555554,
        "lon": 60.40861666666667
    },
    {
        "name": "ANESU",
        "lat": 66.23903888888889,
        "lon": 83.00736388888889
    },
    {
        "name": "ANGAR",
        "lat": 59.63333333333333,
        "lon": 31.2
    },
    {
        "name": "ANGUT",
        "lat": 53.15046666666667,
        "lon": 104.60008611111111
    },
    {
        "name": "ANIGI",
        "lat": 51.16155277777778,
        "lon": 37.473283333333335
    },
    {
        "name": "ANODI",
        "lat": 77.50076388888888,
        "lon": 65.99675277777777
    },
    {
        "name": "APRAN",
        "lat": 61.28721111111111,
        "lon": 75.1355388888889
    },
    {
        "name": "APRUS",
        "lat": 55.983850000000004,
        "lon": 91.23293055555555
    },
    {
        "name": "AR01",
        "lat": 57.33366111111111,
        "lon": 61.91523888888889
    },
    {
        "name": "ARBUK",
        "lat": 67.31688888888888,
        "lon": 41.11396388888889
    },
    {
        "name": "ARDEL",
        "lat": 46.81850555555556,
        "lon": 134.98927777777777
    },
    {
        "name": "ARDIB",
        "lat": 58.60051388888889,
        "lon": 125.40090277777779
    },
    {
        "name": "ARELI",
        "lat": 55.25040555555555,
        "lon": 129.8676388888889
    },
    {
        "name": "ARGIP",
        "lat": 64.60016944444443,
        "lon": 40.715894444444444
    },
    {
        "name": "ARGIT",
        "lat": 55.42027777777778,
        "lon": 60.85528055555556
    },
    {
        "name": "ARGOV",
        "lat": 45.83340555555556,
        "lon": 143.5594638888889
    },
    {
        "name": "ARGUK",
        "lat": 47.88353333333333,
        "lon": 134.65928888888888
    },
    {
        "name": "ARGUP",
        "lat": 58.875,
        "lon": 154.275
    },
    {
        "name": "ARGUT",
        "lat": 43.433169444444445,
        "lon": 43.94860277777777
    },
    {
        "name": "ARISA",
        "lat": 51.490072222222224,
        "lon": 50.54683055555555
    },
    {
        "name": "ARKAD",
        "lat": 52.86667777777778,
        "lon": 44.098325
    },
    {
        "name": "ARKAN",
        "lat": 52.360422222222226,
        "lon": 115.53045277777778
    },
    {
        "name": "ARKAS",
        "lat": 53.498400000000004,
        "lon": 47.218361111111115
    },
    {
        "name": "ARKEP",
        "lat": 60.58896666666667,
        "lon": 109.27696666666667
    },
    {
        "name": "ARKOD",
        "lat": 55.325425,
        "lon": 127.34755833333332
    },
    {
        "name": "ARKUK",
        "lat": 67.4888888888889,
        "lon": 63.98974444444445
    },
    {
        "name": "ARKUT",
        "lat": 44.02643888888889,
        "lon": 38.09184166666667
    },
    {
        "name": "ARLAS",
        "lat": 42.985,
        "lon": 134.59833333333333
    },
    {
        "name": "ARLEB",
        "lat": 46.78,
        "lon": 42.001666666666665
    },
    {
        "name": "ARLEN",
        "lat": 66.78215,
        "lon": 59.07960277777778
    },
    {
        "name": "ARLIM",
        "lat": 70.10506111111111,
        "lon": 174.7416722222222
    },
    {
        "name": "ARLIP",
        "lat": 64.615,
        "lon": 72.20166666666667
    },
    {
        "name": "ARMAD",
        "lat": 67.14833333333334,
        "lon": 33.51833333333333
    },
    {
        "name": "ARNAP",
        "lat": 64.66671944444445,
        "lon": 170.41925277777776
    },
    {
        "name": "ARNIS",
        "lat": 50.035,
        "lon": 41.52166666666667
    },
    {
        "name": "ARNUL",
        "lat": 51.96706666666667,
        "lon": 85.84945833333333
    },
    {
        "name": "ARTEP",
        "lat": 54.82166666666667,
        "lon": 97.85
    },
    {
        "name": "ARTUN",
        "lat": 58.905388888888886,
        "lon": 64.47525555555556
    },
    {
        "name": "ASBAT",
        "lat": 63.89180277777778,
        "lon": 164.74240277777776
    },
    {
        "name": "ASBET",
        "lat": 54.45666666666667,
        "lon": 85.86666666666666
    },
    {
        "name": "ASKAL",
        "lat": 56.285244444444444,
        "lon": 56.54513333333333
    },
    {
        "name": "ASKIB",
        "lat": 59.401666666666664,
        "lon": 143.05166666666668
    },
    {
        "name": "ASKIL",
        "lat": 54.503175,
        "lon": 31.084725
    },
    {
        "name": "ASLAR",
        "lat": 73.02076944444444,
        "lon": 130.311925
    },
    {
        "name": "ASLEM",
        "lat": 53.030125,
        "lon": 52.20348333333334
    },
    {
        "name": "ASMER",
        "lat": 43.55166666666666,
        "lon": 136.38
    },
    {
        "name": "ASMOK",
        "lat": 64.81341944444443,
        "lon": 168.72256666666667
    },
    {
        "name": "ASMUR",
        "lat": 57.85886666666667,
        "lon": 119.44566666666667
    },
    {
        "name": "ASNAR",
        "lat": 52.60666666666667,
        "lon": 37.1
    },
    {
        "name": "ASNOL",
        "lat": 60.18501111111111,
        "lon": 35.782802777777775
    },
    {
        "name": "ASPUN",
        "lat": 48.84661666666667,
        "lon": 44.933477777777775
    },
    {
        "name": "ASTAP",
        "lat": 54.63333333333333,
        "lon": 83.81666666666666
    },
    {
        "name": "ATLIN",
        "lat": 57.963838888888894,
        "lon": 79.70580833333334
    },
    {
        "name": "ATLUM",
        "lat": 61.15701388888889,
        "lon": 56.95491388888889
    },
    {
        "name": "ATMES",
        "lat": 57.98205277777778,
        "lon": 65.92867222222223
    },
    {
        "name": "ATNOR",
        "lat": 60.32729722222223,
        "lon": 107.35355
    },
    {
        "name": "ATREG",
        "lat": 55.74551666666667,
        "lon": 93.39967777777778
    },
    {
        "name": "ATREL",
        "lat": 44.253147222222225,
        "lon": 40.94520833333333
    },
    {
        "name": "ATRIT",
        "lat": 59.89666666666667,
        "lon": 46.055
    },
    {
        "name": "ATRUN",
        "lat": 55.676602777777774,
        "lon": 35.76139722222222
    },
    {
        "name": "AVADI",
        "lat": 56.23330555555556,
        "lon": 37.43139444444444
    },
    {
        "name": "AZABI",
        "lat": 44.73992777777778,
        "lon": 49.49866388888889
    },
    {
        "name": "BA01",
        "lat": 47.31652777777777,
        "lon": 40.365116666666665
    },
    {
        "name": "BA02",
        "lat": 57.01716388888889,
        "lon": 82.06591388888889
    },
    {
        "name": "BABAD",
        "lat": 68.97492222222222,
        "lon": -178.780075
    },
    {
        "name": "BABEM",
        "lat": 66.05047499999999,
        "lon": 59.564680555555555
    },
    {
        "name": "BABRI",
        "lat": 52.368408333333335,
        "lon": 49.333444444444446
    },
    {
        "name": "BABUK",
        "lat": 56.083713888888894,
        "lon": 69.59885
    },
    {
        "name": "BABUR",
        "lat": 45.386608333333335,
        "lon": 49.49865
    },
    {
        "name": "BADAK",
        "lat": 57.35,
        "lon": 39.15
    },
    {
        "name": "BADIN",
        "lat": 52.25544166666667,
        "lon": 107.8668611111111
    },
    {
        "name": "BADKO",
        "lat": 44.511516666666665,
        "lon": 43.506905555555555
    },
    {
        "name": "BADRO",
        "lat": 83.49941944444444,
        "lon": 108.00107222222222
    },
    {
        "name": "BAGAL",
        "lat": 59.683952777777776,
        "lon": 101.03328611111111
    },
    {
        "name": "BAGER",
        "lat": 56.012005555555554,
        "lon": 65.39539166666667
    },
    {
        "name": "BAGLA",
        "lat": 51.86494444444445,
        "lon": 40.65163611111111
    },
    {
        "name": "BAGOM",
        "lat": 46.85333333333333,
        "lon": 140.0
    },
    {
        "name": "BAGOT",
        "lat": 67.55063333333334,
        "lon": 133.38495
    },
    {
        "name": "BAGRA",
        "lat": 66.3534,
        "lon": 171.19610833333334
    },
    {
        "name": "BAGUN",
        "lat": 61.15042777777778,
        "lon": 140.46486388888889
    },
    {
        "name": "BAKAT",
        "lat": 54.08039166666667,
        "lon": 128.3558972222222
    },
    {
        "name": "BAKEN",
        "lat": 53.656725,
        "lon": 157.99333055555553
    },
    {
        "name": "BAKET",
        "lat": 60.22676111111112,
        "lon": 40.86289444444444
    },
    {
        "name": "BAKMI",
        "lat": 54.47047222222223,
        "lon": 88.69118888888889
    },
    {
        "name": "BAKOD",
        "lat": 59.825,
        "lon": 126.81333333333333
    },
    {
        "name": "BAKRI",
        "lat": 43.89810833333333,
        "lon": 38.28184722222222
    },
    {
        "name": "BAKUN",
        "lat": 55.40049166666667,
        "lon": 115.83549722222222
    },
    {
        "name": "BALAS",
        "lat": 51.583308333333335,
        "lon": 43.148355555555554
    },
    {
        "name": "BALEG",
        "lat": 45.65333333333333,
        "lon": 39.32
    },
    {
        "name": "BALEK",
        "lat": 64.01504166666666,
        "lon": 33.917474999999996
    },
    {
        "name": "BALET",
        "lat": 44.833466666666666,
        "lon": 134.01755277777778
    },
    {
        "name": "BALGA",
        "lat": 51.37193611111111,
        "lon": 135.55605
    },
    {
        "name": "BALKA",
        "lat": 63.116772222222224,
        "lon": 38.41430277777778
    },
    {
        "name": "BALOM",
        "lat": 65.26390833333333,
        "lon": 134.69819722222223
    },
    {
        "name": "BALUD",
        "lat": 72.965,
        "lon": 40.63333333333333
    },
    {
        "name": "BALUM",
        "lat": 42.68474444444444,
        "lon": 37.66520277777778
    },
    {
        "name": "BALUR",
        "lat": 61.94333333333333,
        "lon": 172.7
    },
    {
        "name": "BALUT",
        "lat": 55.950522222222226,
        "lon": 92.71631666666667
    },
    {
        "name": "BAMAL",
        "lat": 53.98374722222222,
        "lon": 124.78411388888888
    },
    {
        "name": "BAMIL",
        "lat": 55.04365,
        "lon": 65.17208333333333
    },
    {
        "name": "BAMOK",
        "lat": 56.425,
        "lon": 172.82166666666666
    },
    {
        "name": "BAMOL",
        "lat": 62.61172222222223,
        "lon": 168.3440361111111
    },
    {
        "name": "BAMON",
        "lat": 62.623666666666665,
        "lon": 53.989736111111114
    },
    {
        "name": "BAMUK",
        "lat": 51.61666666666667,
        "lon": 100.91666666666667
    },
    {
        "name": "BAMUS",
        "lat": 54.08377222222222,
        "lon": 83.227675
    },
    {
        "name": "BANAK",
        "lat": 52.58018888888889,
        "lon": 58.356975
    },
    {
        "name": "BANAL",
        "lat": 56.998311111111114,
        "lon": 36.963013888888895
    },
    {
        "name": "BANAM",
        "lat": 57.122011111111114,
        "lon": 63.75363611111111
    },
    {
        "name": "BANAN",
        "lat": 54.55548888888889,
        "lon": 93.513025
    },
    {
        "name": "BANIP",
        "lat": 53.21320277777778,
        "lon": 34.17648888888888
    },
    {
        "name": "BANIR",
        "lat": 51.32533333333334,
        "lon": 127.6674888888889
    },
    {
        "name": "BANIT",
        "lat": 54.83011944444445,
        "lon": 155.07498333333334
    },
    {
        "name": "BANOG",
        "lat": 53.065,
        "lon": 48.968333333333334
    },
    {
        "name": "BANOT",
        "lat": 59.67696111111111,
        "lon": 149.146725
    },
    {
        "name": "BANTA",
        "lat": 65.94903611111111,
        "lon": 83.20238333333333
    },
    {
        "name": "BAPRA",
        "lat": 57.37166666666667,
        "lon": 56.94
    },
    {
        "name": "BARAL",
        "lat": 59.355325,
        "lon": 58.01503888888889
    },
    {
        "name": "BARIB",
        "lat": 45.888333333333335,
        "lon": 138.10999999999999
    },
    {
        "name": "BARLU",
        "lat": 53.36375555555556,
        "lon": 83.54102777777777
    },
    {
        "name": "BARMU",
        "lat": 55.31996111111111,
        "lon": 166.6468888888889
    },
    {
        "name": "BAROV",
        "lat": 54.66358888888889,
        "lon": 82.61664166666667
    },
    {
        "name": "BASAD",
        "lat": 53.7334,
        "lon": 46.765008333333334
    },
    {
        "name": "BASEL",
        "lat": 56.75053611111111,
        "lon": 91.71627222222223
    },
    {
        "name": "BASKO",
        "lat": 46.19992499999999,
        "lon": 46.84858333333334
    },
    {
        "name": "BASKU",
        "lat": 54.55356666666666,
        "lon": 58.51191388888889
    },
    {
        "name": "BATAL",
        "lat": 53.71854166666667,
        "lon": 58.08193333333334
    },
    {
        "name": "BATLA",
        "lat": 54.442125,
        "lon": 85.7360861111111
    },
    {
        "name": "BATNI",
        "lat": 65.70302222222223,
        "lon": -168.97043888888888
    },
    {
        "name": "BATRA",
        "lat": 63.16733333333333,
        "lon": 87.99935555555555
    },
    {
        "name": "BATUR",
        "lat": 52.25172222222222,
        "lon": 48.13675555555555
    },
    {
        "name": "BAVDA",
        "lat": 59.361536111111114,
        "lon": 66.81364722222222
    },
    {
        "name": "BDRD",
        "lat": 52.43378333333333,
        "lon": 103.20003611111112
    },
    {
        "name": "BEBIR",
        "lat": 63.9205,
        "lon": 65.02836388888889
    },
    {
        "name": "BEDLI",
        "lat": 54.817147222222225,
        "lon": 88.72951944444445
    },
    {
        "name": "BEDMO",
        "lat": 66.66561944444445,
        "lon": 71.28678888888889
    },
    {
        "name": "BEDNA",
        "lat": 57.99881666666667,
        "lon": 127.70263611111112
    },
    {
        "name": "BEDUS",
        "lat": 46.60666666666667,
        "lon": 38.733333333333334
    },
    {
        "name": "BEGEL",
        "lat": 63.16562222222222,
        "lon": 124.34599722222222
    },
    {
        "name": "BEGMA",
        "lat": 57.04031666666666,
        "lon": 61.360236111111114
    },
    {
        "name": "BEGUR",
        "lat": 62.12166111111111,
        "lon": 32.86261666666667
    },
    {
        "name": "BEGUS",
        "lat": 55.56350555555555,
        "lon": 52.093383333333335
    },
    {
        "name": "BEGUT",
        "lat": 59.688338888888886,
        "lon": 35.90450555555555
    },
    {
        "name": "BEKAL",
        "lat": 68.86247777777777,
        "lon": 94.9995888888889
    },
    {
        "name": "BEKAM",
        "lat": 60.31681944444445,
        "lon": 44.49796666666667
    },
    {
        "name": "BEKIS",
        "lat": 43.13807777777778,
        "lon": 36.98851666666667
    },
    {
        "name": "BEKMI",
        "lat": 69.78346666666667,
        "lon": 170.59820555555555
    },
    {
        "name": "BEKON",
        "lat": 58.9332,
        "lon": 28.347783333333332
    },
    {
        "name": "BEKUR",
        "lat": 52.37543888888889,
        "lon": 110.76029166666666
    },
    {
        "name": "BELAG",
        "lat": 56.16160277777777,
        "lon": 35.28803333333333
    },
    {
        "name": "BELEG",
        "lat": 63.68884722222222,
        "lon": 66.69844166666667
    },
    {
        "name": "BELIB",
        "lat": 50.64319722222222,
        "lon": 36.589955555555555
    },
    {
        "name": "BELNI",
        "lat": 43.919869444444444,
        "lon": 45.920288888888884
    },
    {
        "name": "BELSA",
        "lat": 62.05839722222222,
        "lon": 37.054361111111106
    },
    {
        "name": "BELUT",
        "lat": 55.45191388888889,
        "lon": 58.02186944444444
    },
    {
        "name": "BEMIR",
        "lat": 55.27173333333333,
        "lon": 44.78657222222222
    },
    {
        "name": "BEMUR",
        "lat": 67.92028055555556,
        "lon": 44.09064444444445
    },
    {
        "name": "BENAG",
        "lat": 53.110030555555554,
        "lon": 45.02166388888889
    },
    {
        "name": "BENAL",
        "lat": 54.77833333333333,
        "lon": 21.646666666666665
    },
    {
        "name": "BENIR",
        "lat": 66.30976388888888,
        "lon": -172.5037111111111
    },
    {
        "name": "BENOK",
        "lat": 51.00850833333333,
        "lon": 144.3329388888889
    },
    {
        "name": "BENOL",
        "lat": 55.07848888888889,
        "lon": 51.46505555555556
    },
    {
        "name": "BEPLA",
        "lat": 57.97891388888889,
        "lon": 101.36996944444444
    },
    {
        "name": "BEPRA",
        "lat": 58.43194444444444,
        "lon": 148.41997777777777
    },
    {
        "name": "BERIP",
        "lat": 60.77055,
        "lon": 77.36231111111111
    },
    {
        "name": "BERNO",
        "lat": 58.14995555555556,
        "lon": 34.364575
    },
    {
        "name": "BERUN",
        "lat": 53.37489166666667,
        "lon": 35.42149722222222
    },
    {
        "name": "BESER",
        "lat": 46.205000000000005,
        "lon": 136.4283333333333
    },
    {
        "name": "BESON",
        "lat": 79.35102222222221,
        "lon": 104.51693333333333
    },
    {
        "name": "BESPA",
        "lat": 50.10192777777778,
        "lon": 133.41763055555555
    },
    {
        "name": "BESUN",
        "lat": 56.106791666666666,
        "lon": 47.91826666666667
    },
    {
        "name": "BESUR",
        "lat": 61.67399444444444,
        "lon": 96.93477222222222
    },
    {
        "name": "BETAM",
        "lat": 64.72501666666666,
        "lon": 172.61762777777778
    },
    {
        "name": "BETOR",
        "lat": 43.868233333333336,
        "lon": 48.44033333333333
    },
    {
        "name": "BG01",
        "lat": 43.88345277777778,
        "lon": 133.25085555555555
    },
    {
        "name": "BI01",
        "lat": 69.40912222222222,
        "lon": 86.21573611111111
    },
    {
        "name": "BIGET",
        "lat": 52.87007222222222,
        "lon": 155.77992222222224
    },
    {
        "name": "BIKMA",
        "lat": 57.071958333333335,
        "lon": 59.17683888888889
    },
    {
        "name": "BIKNA",
        "lat": 61.28841388888889,
        "lon": 38.756116666666664
    },
    {
        "name": "BIKUR",
        "lat": 47.950138888888894,
        "lon": 141.46779444444445
    },
    {
        "name": "BILMA",
        "lat": 55.108847222222224,
        "lon": 104.49175277777778
    },
    {
        "name": "BILMI",
        "lat": 65.43869444444445,
        "lon": 52.197805555555554
    },
    {
        "name": "BIMLO",
        "lat": 58.27037222222222,
        "lon": 63.98193333333334
    },
    {
        "name": "BIMTA",
        "lat": 57.388869444444445,
        "lon": 116.61055277777777
    },
    {
        "name": "BINTA",
        "lat": 77.74598611111111,
        "lon": 95.98273055555556
    },
    {
        "name": "BIRBO",
        "lat": 48.83356666666667,
        "lon": 132.91759166666665
    },
    {
        "name": "BISNA",
        "lat": 42.23321111111111,
        "lon": 49.28205
    },
    {
        "name": "BISUN",
        "lat": 43.23345277777778,
        "lon": 131.19746111111112
    },
    {
        "name": "BITSA",
        "lat": 55.566630555555555,
        "lon": 37.61476388888889
    },
    {
        "name": "BOBRU",
        "lat": 68.21716666666667,
        "lon": 146.02055833333335
    },
    {
        "name": "BODRO",
        "lat": 50.533183333333334,
        "lon": 35.76494722222222
    },
    {
        "name": "BOGRA",
        "lat": 53.15046666666667,
        "lon": 103.7833888888889
    },
    {
        "name": "BOKIS",
        "lat": 50.96203333333334,
        "lon": 83.55273055555556
    },
    {
        "name": "BOKNA",
        "lat": 55.25,
        "lon": 148.73999999999998
    },
    {
        "name": "BOKSA",
        "lat": 56.09011666666667,
        "lon": 47.34658888888889
    },
    {
        "name": "BOKVI",
        "lat": 65.45363888888889,
        "lon": 48.441022222222216
    },
    {
        "name": "BOLUK",
        "lat": 54.899683333333336,
        "lon": 21.081286111111112
    },
    {
        "name": "BOMGI",
        "lat": 56.08153333333334,
        "lon": 31.00131111111111
    },
    {
        "name": "BOMLI",
        "lat": 60.75051111111111,
        "lon": 72.74880277777778
    },
    {
        "name": "BOROK",
        "lat": 44.93320555555555,
        "lon": 44.51524444444444
    },
    {
        "name": "BUGOT",
        "lat": 54.640163888888885,
        "lon": 52.800102777777774
    },
    {
        "name": "BUKAM",
        "lat": 55.142136111111114,
        "lon": 84.33602777777777
    },
    {
        "name": "BUKET",
        "lat": 61.700358333333334,
        "lon": 56.91488333333333
    },
    {
        "name": "BULOD",
        "lat": 46.76166666666666,
        "lon": 139.45166666666665
    },
    {
        "name": "BULUN",
        "lat": 70.68408333333333,
        "lon": 127.40153611111111
    },
    {
        "name": "BUMAD",
        "lat": 60.36714166666667,
        "lon": 134.43461944444445
    },
    {
        "name": "BUMAR",
        "lat": 42.0282,
        "lon": 48.92038055555555
    },
    {
        "name": "BUMAT",
        "lat": 61.835169444444446,
        "lon": 160.54881666666665
    },
    {
        "name": "BUMEN",
        "lat": 49.19340555555555,
        "lon": 150.00135277777778
    },
    {
        "name": "BUMER",
        "lat": 54.34216111111111,
        "lon": 97.94818333333333
    },
    {
        "name": "BUMET",
        "lat": 69.32583055555556,
        "lon": 101.51829722222222
    },
    {
        "name": "BUMON",
        "lat": 58.44725277777778,
        "lon": 95.18805833333333
    },
    {
        "name": "BUMUL",
        "lat": 64.68155,
        "lon": 179.8927222222222
    },
    {
        "name": "BUMUR",
        "lat": 57.80363055555555,
        "lon": 58.43512222222222
    },
    {
        "name": "BUNAK",
        "lat": 54.91713055555555,
        "lon": 84.34936666666667
    },
    {
        "name": "BUNET",
        "lat": 55.16038888888889,
        "lon": 72.69397500000001
    },
    {
        "name": "BURUK",
        "lat": 55.58372777777778,
        "lon": 131.9510472222222
    },
    {
        "name": "BUSUL",
        "lat": 61.4169,
        "lon": 155.90034166666666
    },
    {
        "name": "BUTRI",
        "lat": 50.78325833333333,
        "lon": 40.59834166666667
    },
    {
        "name": "BW01",
        "lat": 51.89671111111111,
        "lon": 47.79509722222222
    },
    {
        "name": "DABER",
        "lat": 55.05008055555555,
        "lon": 46.13160833333333
    },
    {
        "name": "DABUR",
        "lat": 51.78521111111111,
        "lon": 142.59958333333336
    },
    {
        "name": "DAGES",
        "lat": 43.66678611111111,
        "lon": 132.81750833333334
    },
    {
        "name": "DAGOT",
        "lat": 52.84019166666667,
        "lon": 58.043625
    },
    {
        "name": "DAKLO",
        "lat": 55.61664722222223,
        "lon": 38.63144444444445
    },
    {
        "name": "DANAT",
        "lat": 64.90055000000001,
        "lon": 67.99842222222222
    },
    {
        "name": "DANDU",
        "lat": 54.75012777777778,
        "lon": 49.948366666666665
    },
    {
        "name": "DARNO",
        "lat": 50.35706388888889,
        "lon": 98.294875
    },
    {
        "name": "DASKO",
        "lat": 49.10519722222222,
        "lon": 138.1427361111111
    },
    {
        "name": "DATIR",
        "lat": 58.60525277777778,
        "lon": 150.6967138888889
    },
    {
        "name": "DEBAR",
        "lat": 57.05054722222222,
        "lon": 92.53296666666667
    },
    {
        "name": "DEBED",
        "lat": 62.01728333333333,
        "lon": 121.07248888888888
    },
    {
        "name": "DEBRI",
        "lat": 55.13361388888889,
        "lon": 61.71531388888889
    },
    {
        "name": "DEDUM",
        "lat": 55.83329166666667,
        "lon": 37.06974166666667
    },
    {
        "name": "DEDUN",
        "lat": 51.63623611111111,
        "lon": 116.30046944444445
    },
    {
        "name": "DEGER",
        "lat": 61.89501111111111,
        "lon": 34.08432222222223
    },
    {
        "name": "DEKAN",
        "lat": 53.38711388888889,
        "lon": 88.93120833333334
    },
    {
        "name": "DEKIS",
        "lat": 61.17893333333333,
        "lon": 83.17252777777779
    },
    {
        "name": "DELAK",
        "lat": 65.84971944444445,
        "lon": -170.51375833333333
    },
    {
        "name": "DELAM",
        "lat": 54.933452777777774,
        "lon": 155.23499166666664
    },
    {
        "name": "DELEM",
        "lat": 52.26544166666667,
        "lon": 107.60518611111111
    },
    {
        "name": "DELIL",
        "lat": 66.65028055555557,
        "lon": 45.42415277777778
    },
    {
        "name": "DEMAN",
        "lat": 52.441775,
        "lon": 51.87182777777778
    },
    {
        "name": "DENUD",
        "lat": 67.54203888888888,
        "lon": 154.0907888888889
    },
    {
        "name": "DEPOR",
        "lat": 59.21356111111111,
        "lon": 50.86151666666667
    },
    {
        "name": "DERIB",
        "lat": 47.92653333333333,
        "lon": 39.908425
    },
    {
        "name": "DERUD",
        "lat": 60.818333333333335,
        "lon": 152.39499999999998
    },
    {
        "name": "DERUG",
        "lat": 44.70988055555556,
        "lon": 45.62526666666667
    },
    {
        "name": "DERUS",
        "lat": 64.85891388888888,
        "lon": 71.02521666666667
    },
    {
        "name": "DERUT",
        "lat": 61.095647222222226,
        "lon": 96.45308888888889
    },
    {
        "name": "DESDI",
        "lat": 53.71823055555556,
        "lon": 35.271480555555556
    },
    {
        "name": "DESIK",
        "lat": 57.35053611111111,
        "lon": 88.16613333333333
    },
    {
        "name": "DESIN",
        "lat": 63.82666666666667,
        "lon": 158.65833333333333
    },
    {
        "name": "DETIR",
        "lat": 44.52333333333333,
        "lon": 47.336666666666666
    },
    {
        "name": "DEVID",
        "lat": 89.00000833333333,
        "lon": -168.90512777777778
    },
    {
        "name": "DIANA",
        "lat": 59.53333333333333,
        "lon": 30.383333333333333
    },
    {
        "name": "DIBAT",
        "lat": 44.57310555555556,
        "lon": 37.25848333333333
    },
    {
        "name": "DIBOR",
        "lat": 51.60873055555556,
        "lon": 117.59551111111111
    },
    {
        "name": "DIBUL",
        "lat": 55.81691388888889,
        "lon": 57.62851388888889
    },
    {
        "name": "DIDEK",
        "lat": 48.90856111111111,
        "lon": 134.24263055555554
    },
    {
        "name": "DIDMA",
        "lat": 50.49154722222222,
        "lon": 37.93997777777778
    },
    {
        "name": "DIDUL",
        "lat": 64.33006666666667,
        "lon": 34.96913333333333
    },
    {
        "name": "DIGRA",
        "lat": 43.368097222222225,
        "lon": 38.30019444444444
    },
    {
        "name": "DIGUS",
        "lat": 53.65000555555555,
        "lon": 42.66493611111111
    },
    {
        "name": "DIKAN",
        "lat": 61.88505555555555,
        "lon": 36.65103333333333
    },
    {
        "name": "DIKEN",
        "lat": 65.05396944444445,
        "lon": 76.69545277777779
    },
    {
        "name": "DIKUT",
        "lat": 43.39845,
        "lon": 132.1474861111111
    },
    {
        "name": "DILAG",
        "lat": 59.47666666666667,
        "lon": 126.39500000000001
    },
    {
        "name": "DILAT",
        "lat": 52.46375833333334,
        "lon": 88.82621666666667
    },
    {
        "name": "DILED",
        "lat": 65.74533611111111,
        "lon": 50.01771111111111
    },
    {
        "name": "DILER",
        "lat": 46.87985833333333,
        "lon": 40.77013611111111
    },
    {
        "name": "DILGA",
        "lat": 58.15656944444444,
        "lon": 31.22453333333333
    },
    {
        "name": "DILMI",
        "lat": 53.983333333333334,
        "lon": 46.986666666666665
    },
    {
        "name": "DILNI",
        "lat": 54.50544166666667,
        "lon": 82.4076388888889
    },
    {
        "name": "DILSA",
        "lat": 77.00025833333333,
        "lon": 170.00490277777777
    },
    {
        "name": "DIMUR",
        "lat": 65.33639722222222,
        "lon": -171.48714999999999
    },
    {
        "name": "DINEG",
        "lat": 53.00512222222222,
        "lon": 52.15848333333333
    },
    {
        "name": "DINEK",
        "lat": 57.80333333333333,
        "lon": 85.155
    },
    {
        "name": "DINEP",
        "lat": 55.818333333333335,
        "lon": 64.72
    },
    {
        "name": "DINOM",
        "lat": 63.556666666666665,
        "lon": 107.0
    },
    {
        "name": "DINTO",
        "lat": 62.71561388888889,
        "lon": 123.95263333333334
    },
    {
        "name": "DINUL",
        "lat": 69.19833333333334,
        "lon": 58.975
    },
    {
        "name": "DIPMA",
        "lat": 58.28333333333333,
        "lon": 152.14666666666665
    },
    {
        "name": "DIPNA",
        "lat": 55.041666666666664,
        "lon": 167.49666666666664
    },
    {
        "name": "DIPRI",
        "lat": 66.63231666666665,
        "lon": 74.75861666666667
    },
    {
        "name": "DIRIP",
        "lat": 81.38437222222223,
        "lon": 92.39865277777778
    },
    {
        "name": "DIRON",
        "lat": 55.723286111111115,
        "lon": 36.69307499999999
    },
    {
        "name": "DIRUL",
        "lat": 44.825,
        "lon": 137.55166666666668
    },
    {
        "name": "DIRUN",
        "lat": 43.086425000000006,
        "lon": 38.171866666666666
    },
    {
        "name": "DISOM",
        "lat": 58.87719722222222,
        "lon": 80.32747499999999
    },
    {
        "name": "DISON",
        "lat": 70.49063611111112,
        "lon": 65.84122222222221
    },
    {
        "name": "DISUM",
        "lat": 58.345,
        "lon": 48.17166666666667
    },
    {
        "name": "DITEK",
        "lat": 44.356572222222226,
        "lon": 48.12365
    },
    {
        "name": "DITOR",
        "lat": 49.18349166666666,
        "lon": 142.0845027777778
    },
    {
        "name": "DIVIL",
        "lat": 53.32848888888889,
        "lon": 150.00148055555556
    },
    {
        "name": "DIVIN",
        "lat": 59.22184722222222,
        "lon": 156.7368972222222
    },
    {
        "name": "DLIUR",
        "lat": 72.40074722222222,
        "lon": 72.74806666666667
    },
    {
        "name": "DOBOS",
        "lat": 51.95710555555556,
        "lon": 103.98672777777777
    },
    {
        "name": "DOBUT",
        "lat": 67.11362222222222,
        "lon": 45.44410555555555
    },
    {
        "name": "DOGOT",
        "lat": 75.97256944444445,
        "lon": 83.95513333333334
    },
    {
        "name": "DOKUR",
        "lat": 58.23384166666667,
        "lon": 124.910875
    },
    {
        "name": "DOLIR",
        "lat": 58.615566666666666,
        "lon": 87.95777222222223
    },
    {
        "name": "DOLMA",
        "lat": 43.80012222222222,
        "lon": 132.6508388888889
    },
    {
        "name": "DOMON",
        "lat": 51.116952777777776,
        "lon": 132.98430833333333
    },
    {
        "name": "DOMUK",
        "lat": 58.39986111111111,
        "lon": 28.539486111111113
    },
    {
        "name": "DONUS",
        "lat": 54.99697777777778,
        "lon": 64.93374166666668
    },
    {
        "name": "DORIP",
        "lat": 60.903974999999996,
        "lon": 108.52527222222223
    },
    {
        "name": "DORUL",
        "lat": 57.46881388888889,
        "lon": 126.28590555555556
    },
    {
        "name": "DOSON",
        "lat": 73.5175,
        "lon": 80.3801111111111
    },
    {
        "name": "DUBES",
        "lat": 61.12229166666667,
        "lon": 88.77276111111111
    },
    {
        "name": "DUKAR",
        "lat": 64.61821666666665,
        "lon": 179.7210472222222
    },
    {
        "name": "EDINI",
        "lat": 55.80047777777777,
        "lon": 83.08263888888888
    },
    {
        "name": "EDONI",
        "lat": 78.00599722222222,
        "lon": 103.99351666666666
    },
    {
        "name": "EKTEN",
        "lat": 51.5451,
        "lon": 52.50687222222222
    },
    {
        "name": "EMGOL",
        "lat": 50.74683888888889,
        "lon": 143.99625833333332
    },
    {
        "name": "ENDER",
        "lat": 62.267272222222225,
        "lon": 123.5476
    },
    {
        "name": "ENILO",
        "lat": 46.175,
        "lon": 38.03333333333333
    },
    {
        "name": "ENIRA",
        "lat": 61.09666666666667,
        "lon": 65.98166666666667
    },
    {
        "name": "ERETA",
        "lat": 45.29833333333333,
        "lon": 40.38666666666666
    },
    {
        "name": "ERKON",
        "lat": 54.048769444444446,
        "lon": 82.95266666666667
    },
    {
        "name": "ERMAK",
        "lat": 67.98341388888889,
        "lon": 32.363686111111114
    },
    {
        "name": "ERMAL",
        "lat": 55.22833333333333,
        "lon": 36.61
    },
    {
        "name": "ERNIK",
        "lat": 63.65640555555555,
        "lon": -173.11399166666666
    },
    {
        "name": "EROKI",
        "lat": 50.95874722222222,
        "lon": 103.408375
    },
    {
        "name": "ERONI",
        "lat": 82.27591111111111,
        "lon": 71.99555
    },
    {
        "name": "ERONO",
        "lat": 45.44,
        "lon": 138.13833333333332
    },
    {
        "name": "ERUSA",
        "lat": 63.16,
        "lon": 59.861666666666665
    },
    {
        "name": "ESIMO",
        "lat": 46.678152777777775,
        "lon": 38.21010555555556
    },
    {
        "name": "EVERA",
        "lat": 57.728833333333334,
        "lon": 79.71248055555556
    },
    {
        "name": "FANTA",
        "lat": 59.68333333333333,
        "lon": 30.15
    },
    {
        "name": "FINB",
        "lat": 49.45021666666667,
        "lon": 136.56770277777778
    },
    {
        "name": "FRENK",
        "lat": 66.6197,
        "lon": -168.97033333333334
    },
    {
        "name": "GABAL",
        "lat": 53.22043888888889,
        "lon": 116.84050555555555
    },
    {
        "name": "GAGRU",
        "lat": 42.435091666666665,
        "lon": 132.18414166666668
    },
    {
        "name": "GAKRA",
        "lat": 57.99666666666667,
        "lon": 149.32666666666665
    },
    {
        "name": "GALKA",
        "lat": 58.99386944444444,
        "lon": 123.43917222222223
    },
    {
        "name": "GAMAN",
        "lat": 44.999769444444446,
        "lon": 36.590133333333334
    },
    {
        "name": "GAMBI",
        "lat": 64.14013055555556,
        "lon": 38.93756111111111
    },
    {
        "name": "GAMDI",
        "lat": 55.66667777777778,
        "lon": 40.614808333333336
    },
    {
        "name": "GAMOV",
        "lat": 42.550102777777774,
        "lon": 131.21745277777777
    },
    {
        "name": "GAMTU",
        "lat": 48.2,
        "lon": 43.63333333333333
    },
    {
        "name": "GANPA",
        "lat": 66.7840361111111,
        "lon": 123.36776111111111
    },
    {
        "name": "GAPSA",
        "lat": 56.27825555555555,
        "lon": 34.193011111111105
    },
    {
        "name": "GARMU",
        "lat": 60.35166666666667,
        "lon": 69.625
    },
    {
        "name": "GARON",
        "lat": 54.01548888888889,
        "lon": 101.96166111111111
    },
    {
        "name": "GARSI",
        "lat": 60.983361111111115,
        "lon": 35.95441944444445
    },
    {
        "name": "GEBNA",
        "lat": 63.871925,
        "lon": 157.15388333333334
    },
    {
        "name": "GEBSA",
        "lat": 55.873333333333335,
        "lon": 77.92166666666667
    },
    {
        "name": "GEBTA",
        "lat": 54.230000000000004,
        "lon": 157.82
    },
    {
        "name": "GEDLA",
        "lat": 61.07223611111112,
        "lon": 78.99903055555555
    },
    {
        "name": "GEFAR",
        "lat": 54.213375000000006,
        "lon": 159.8033888888889
    },
    {
        "name": "GEKMA",
        "lat": 52.55378611111111,
        "lon": 104.73008888888889
    },
    {
        "name": "GEKTA",
        "lat": 58.667252777777776,
        "lon": 111.51703888888889
    },
    {
        "name": "GEMBI",
        "lat": 43.89,
        "lon": 136.685
    },
    {
        "name": "GEMRA",
        "lat": 52.181974999999994,
        "lon": 133.23266944444444
    },
    {
        "name": "GEMRI",
        "lat": 59.48385277777778,
        "lon": 76.97066666666667
    },
    {
        "name": "GENRI",
        "lat": 66.50139166666666,
        "lon": -170.32201388888888
    },
    {
        "name": "GEPLA",
        "lat": 61.93210555555555,
        "lon": 63.29118888888889
    },
    {
        "name": "GETNA",
        "lat": 55.07638888888889,
        "lon": 60.655
    },
    {
        "name": "GETRU",
        "lat": 51.44038888888888,
        "lon": 118.37553333333332
    },
    {
        "name": "GG001",
        "lat": 55.57432777777778,
        "lon": 37.18203611111111
    },
    {
        "name": "GIBRA",
        "lat": 53.016505555555554,
        "lon": 32.39814166666667
    },
    {
        "name": "GIBRI",
        "lat": 63.31069166666666,
        "lon": 109.89035833333334
    },
    {
        "name": "GIBUL",
        "lat": 57.397016666666666,
        "lon": 63.76029166666667
    },
    {
        "name": "GIGEN",
        "lat": 62.686766666666664,
        "lon": 38.56934166666667
    },
    {
        "name": "GIKOS",
        "lat": 53.968763888888894,
        "lon": 121.98568611111111
    },
    {
        "name": "GIKSA",
        "lat": 66.05333333333333,
        "lon": 129.49166666666665
    },
    {
        "name": "GIKSI",
        "lat": 71.69575833333333,
        "lon": 128.90170555555557
    },
    {
        "name": "GILAM",
        "lat": 56.65009166666667,
        "lon": 44.93151111111111
    },
    {
        "name": "GILAR",
        "lat": 57.420566666666666,
        "lon": 104.82510277777777
    },
    {
        "name": "GILBU",
        "lat": 58.88355277777778,
        "lon": 50.86486666666667
    },
    {
        "name": "GILED",
        "lat": 54.056666666666665,
        "lon": 58.78666666666666
    },
    {
        "name": "GILEM",
        "lat": 59.083825000000004,
        "lon": 129.53106666666667
    },
    {
        "name": "GILUN",
        "lat": 61.682158333333334,
        "lon": 135.6963888888889
    },
    {
        "name": "GIMAR",
        "lat": 60.36060833333333,
        "lon": 115.97890833333334
    },
    {
        "name": "GIMED",
        "lat": 55.43385555555555,
        "lon": 101.89999166666668
    },
    {
        "name": "GIMES",
        "lat": 46.25833333333333,
        "lon": 136.69333333333333
    },
    {
        "name": "GIMET",
        "lat": 65.965,
        "lon": 33.848333333333336
    },
    {
        "name": "GIMIR",
        "lat": 65.482275,
        "lon": 72.69858888888889
    },
    {
        "name": "GIMOD",
        "lat": 53.18666666666666,
        "lon": 85.55333333333333
    },
    {
        "name": "GIMOL",
        "lat": 55.313763888888886,
        "lon": 126.51919722222222
    },
    {
        "name": "GIMON",
        "lat": 71.51704722222222,
        "lon": 46.380227777777776
    },
    {
        "name": "GIMOS",
        "lat": 71.0808111111111,
        "lon": 120.28947777777778
    },
    {
        "name": "GINES",
        "lat": 58.10203055555556,
        "lon": 63.60692777777778
    },
    {
        "name": "GINOL",
        "lat": 54.413605555555556,
        "lon": 142.0129777777778
    },
    {
        "name": "GINOM",
        "lat": 51.0,
        "lon": 97.86666666666666
    },
    {
        "name": "GINUK",
        "lat": 54.23345277777778,
        "lon": 50.06505833333333
    },
    {
        "name": "GINUL",
        "lat": 63.245111111111115,
        "lon": 165.61736666666667
    },
    {
        "name": "GINUR",
        "lat": 56.95885277777778,
        "lon": 117.80725555555556
    },
    {
        "name": "GIPAL",
        "lat": 44.82833333333333,
        "lon": 135.38333333333333
    },
    {
        "name": "GIPRI",
        "lat": 59.76503888888889,
        "lon": 37.84953333333333
    },
    {
        "name": "GIRAN",
        "lat": 53.43,
        "lon": 147.71499999999997
    },
    {
        "name": "GIREN",
        "lat": 57.77057222222222,
        "lon": 108.06023055555555
    },
    {
        "name": "GIRET",
        "lat": 43.723333333333336,
        "lon": 39.486666666666665
    },
    {
        "name": "GIRLO",
        "lat": 64.37644166666666,
        "lon": -174.43726388888888
    },
    {
        "name": "GIRUM",
        "lat": 56.47666666666667,
        "lon": 91.46000000000001
    },
    {
        "name": "GISAD",
        "lat": 57.777208333333334,
        "lon": 86.56273333333333
    },
    {
        "name": "GISAK",
        "lat": 55.30360833333333,
        "lon": 60.778616666666665
    },
    {
        "name": "GISAN",
        "lat": 62.183638888888886,
        "lon": 52.518055555555556
    },
    {
        "name": "GISOL",
        "lat": 45.716591666666666,
        "lon": 47.59860833333334
    },
    {
        "name": "GISON",
        "lat": 55.931666666666665,
        "lon": 17.701666666666664
    },
    {
        "name": "GISOT",
        "lat": 61.54384722222222,
        "lon": 71.040375
    },
    {
        "name": "GISUR",
        "lat": 61.34386388888889,
        "lon": 73.4021388888889
    },
    {
        "name": "GITAL",
        "lat": 52.52833333333333,
        "lon": 40.68666666666666
    },
    {
        "name": "GITEN",
        "lat": 56.16373333333333,
        "lon": 132.9177611111111
    },
    {
        "name": "GITES",
        "lat": 57.796863888888886,
        "lon": 153.51674722222222
    },
    {
        "name": "GITIN",
        "lat": 64.95166666666667,
        "lon": 115.44666666666667
    },
    {
        "name": "GITIR",
        "lat": 61.19499999999999,
        "lon": 64.86833333333333
    },
    {
        "name": "GITIS",
        "lat": 54.97666666666667,
        "lon": 86.0
    },
    {
        "name": "GITOS",
        "lat": 61.87665555555556,
        "lon": 32.73596666666667
    },
    {
        "name": "GITUR",
        "lat": 62.784013888888886,
        "lon": 93.99963055555556
    },
    {
        "name": "GOBUN",
        "lat": 50.301541666666665,
        "lon": 37.63831388888889
    },
    {
        "name": "GODLA",
        "lat": 66.11999999999999,
        "lon": 129.0
    },
    {
        "name": "GOGIN",
        "lat": 48.78160833333333,
        "lon": 44.34513611111112
    },
    {
        "name": "GOKRA",
        "lat": 47.216522222222224,
        "lon": 40.200116666666666
    },
    {
        "name": "GOLAD",
        "lat": 54.33302777777778,
        "lon": 22.178541666666668
    },
    {
        "name": "GOLIM",
        "lat": 55.11711388888889,
        "lon": 80.96591388888889
    },
    {
        "name": "GOLOM",
        "lat": 72.72077222222222,
        "lon": 74.84982777777778
    },
    {
        "name": "GOLOS",
        "lat": 52.30044722222222,
        "lon": 105.33344166666666
    },
    {
        "name": "GOMED",
        "lat": 54.452986111111116,
        "lon": 19.656299999999998
    },
    {
        "name": "GOMIR",
        "lat": 50.17868611111111,
        "lon": 84.70110833333334
    },
    {
        "name": "GOMUR",
        "lat": 53.663266666666665,
        "lon": 37.79651944444444
    },
    {
        "name": "GOMUT",
        "lat": 64.8639861111111,
        "lon": 124.72441111111111
    },
    {
        "name": "GONAM",
        "lat": 68.40333611111112,
        "lon": 176.55478333333335
    },
    {
        "name": "GONKA",
        "lat": 66.97214722222222,
        "lon": 58.677905555555554
    },
    {
        "name": "GONUR",
        "lat": 72.3224361111111,
        "lon": 75.41156944444445
    },
    {
        "name": "GOPTA",
        "lat": 61.320658333333334,
        "lon": 100.74660555555556
    },
    {
        "name": "GOPTO",
        "lat": 49.09200555555556,
        "lon": 87.46620555555556
    },
    {
        "name": "GORAS",
        "lat": 63.390116666666664,
        "lon": 165.42570833333332
    },
    {
        "name": "GORLI",
        "lat": 57.295230555555555,
        "lon": 53.96668888888889
    },
    {
        "name": "GOTIK",
        "lat": 43.48986388888889,
        "lon": 46.040302777777775
    },
    {
        "name": "GOTMA",
        "lat": 55.63828888888889,
        "lon": 37.01975
    },
    {
        "name": "GOTUN",
        "lat": 54.53842222222222,
        "lon": 47.41665555555556
    },
    {
        "name": "GRADA",
        "lat": 57.983716666666666,
        "lon": 65.61532777777778
    },
    {
        "name": "GRUMA",
        "lat": 56.083600000000004,
        "lon": 145.5098
    },
    {
        "name": "GUBAD",
        "lat": 61.22195555555556,
        "lon": 151.74688333333333
    },
    {
        "name": "GUBAT",
        "lat": 67.00723055555555,
        "lon": 65.43151111111112
    },
    {
        "name": "GUBES",
        "lat": 54.13845833333333,
        "lon": 50.64340833333333
    },
    {
        "name": "GUBIR",
        "lat": 62.338572222222226,
        "lon": 47.69958055555555
    },
    {
        "name": "GUBIT",
        "lat": 56.94153333333333,
        "lon": 30.116255555555558
    },
    {
        "name": "GUBOR",
        "lat": 43.88147222222222,
        "lon": 40.710213888888894
    },
    {
        "name": "GUDAL",
        "lat": 66.75666666666666,
        "lon": 106.93
    },
    {
        "name": "GUDIR",
        "lat": 67.575625,
        "lon": 70.02500555555555
    },
    {
        "name": "GUDLI",
        "lat": 49.01683611111111,
        "lon": 140.6828
    },
    {
        "name": "GUDOK",
        "lat": 45.48320555555556,
        "lon": 43.69855
    },
    {
        "name": "GUKOL",
        "lat": 48.19486944444444,
        "lon": 39.94175
    },
    {
        "name": "GULER",
        "lat": 55.20524166666667,
        "lon": 58.153549999999996
    },
    {
        "name": "GULMA",
        "lat": 54.25325,
        "lon": 35.986466666666665
    },
    {
        "name": "GULPI",
        "lat": 56.31047777777778,
        "lon": 81.48924166666667
    },
    {
        "name": "GUPRI",
        "lat": 54.450272222222225,
        "lon": 62.315352777777775
    },
    {
        "name": "GUSIN",
        "lat": 51.10041388888889,
        "lon": 106.23346666666667
    },
    {
        "name": "GUSLI",
        "lat": 42.91815277777778,
        "lon": 43.28360555555555
    },
    {
        "name": "IBAMO",
        "lat": 54.85488055555556,
        "lon": 33.1164
    },
    {
        "name": "IBOGA",
        "lat": 52.190436111111104,
        "lon": 109.3369111111111
    },
    {
        "name": "IBRIL",
        "lat": 60.265475,
        "lon": 70.088725
    },
    {
        "name": "IBRUS",
        "lat": 55.32524166666667,
        "lon": 58.091875
    },
    {
        "name": "IDARI",
        "lat": 69.33666666666666,
        "lon": 166.03
    },
    {
        "name": "IDERI",
        "lat": 53.59875277777778,
        "lon": 82.10097777777777
    },
    {
        "name": "IDGAR",
        "lat": 54.29378611111111,
        "lon": 85.43441111111112
    },
    {
        "name": "IDIGA",
        "lat": 58.54373611111111,
        "lon": 66.36533055555554
    },
    {
        "name": "IDILI",
        "lat": 50.866661111111114,
        "lon": 45.45175555555556
    },
    {
        "name": "IDOKA",
        "lat": 51.353258333333336,
        "lon": 39.851641666666666
    },
    {
        "name": "IDORA",
        "lat": 56.80211666666666,
        "lon": 128.6876388888889
    },
    {
        "name": "IDRAN",
        "lat": 56.917183333333334,
        "lon": 118.28393888888888
    },
    {
        "name": "IGODA",
        "lat": 55.7336,
        "lon": 144.87643611111113
    },
    {
        "name": "IGORO",
        "lat": 56.359825,
        "lon": 28.197933333333335
    },
    {
        "name": "IGROD",
        "lat": 41.650038888888886,
        "lon": 136.7842388888889
    },
    {
        "name": "IKADA",
        "lat": 44.666777777777774,
        "lon": 136.65095
    },
    {
        "name": "ILMUK",
        "lat": 64.93511388888889,
        "lon": 167.24755
    },
    {
        "name": "ILTON",
        "lat": 56.86888888888889,
        "lon": 103.77506111111111
    },
    {
        "name": "IMANA",
        "lat": 55.391930555555554,
        "lon": 59.765252777777775
    },
    {
        "name": "IMETA",
        "lat": 59.18216944444444,
        "lon": 75.88730277777779
    },
    {
        "name": "INBAL",
        "lat": 50.19159722222222,
        "lon": 41.843383333333335
    },
    {
        "name": "INBOK",
        "lat": 53.278758333333336,
        "lon": 84.28105555555555
    },
    {
        "name": "INBUS",
        "lat": 52.40164722222222,
        "lon": 42.42497777777778
    },
    {
        "name": "INDAL",
        "lat": 54.785,
        "lon": 52.36666666666667
    },
    {
        "name": "INDER",
        "lat": 67.05241388888889,
        "lon": 87.74257222222222
    },
    {
        "name": "INDIK",
        "lat": 63.26710555555555,
        "lon": 143.20173888888888
    },
    {
        "name": "INDIT",
        "lat": 52.985425,
        "lon": 85.94611388888889
    },
    {
        "name": "INGEN",
        "lat": 56.83355,
        "lon": 53.45503055555556
    },
    {
        "name": "INGER",
        "lat": 64.96032222222223,
        "lon": 50.231116666666665
    },
    {
        "name": "INGUS",
        "lat": 64.08973611111111,
        "lon": -172.67228333333333
    },
    {
        "name": "INKUL",
        "lat": 56.69166666666666,
        "lon": 57.955000000000005
    },
    {
        "name": "INLIR",
        "lat": 60.30701388888889,
        "lon": 145.93999722222222
    },
    {
        "name": "INRIT",
        "lat": 66.47666666666667,
        "lon": 63.47
    },
    {
        "name": "INROS",
        "lat": 65.40395000000001,
        "lon": 73.50196111111111
    },
    {
        "name": "INRUK",
        "lat": 53.235,
        "lon": 155.70999999999998
    },
    {
        "name": "INSER",
        "lat": 46.181488888888886,
        "lon": 38.95846388888889
    },
    {
        "name": "INSUL",
        "lat": 55.753861111111114,
        "lon": 107.01851388888889
    },
    {
        "name": "INTAK",
        "lat": 57.64389444444444,
        "lon": 111.20868333333334
    },
    {
        "name": "INTEP",
        "lat": 56.144999999999996,
        "lon": 51.406666666666666
    },
    {
        "name": "INVER",
        "lat": 59.44041111111111,
        "lon": 65.42693333333334
    },
    {
        "name": "IPLEN",
        "lat": 54.092108333333336,
        "lon": 83.721025
    },
    {
        "name": "IPREL",
        "lat": 52.94701944444444,
        "lon": 129.95425555555553
    },
    {
        "name": "IRBIS",
        "lat": 64.92405833333333,
        "lon": 110.94543055555556
    },
    {
        "name": "IRDOS",
        "lat": 59.049863888888886,
        "lon": 28.147772222222223
    },
    {
        "name": "IRKAN",
        "lat": 55.33335,
        "lon": 162.94182777777777
    },
    {
        "name": "ISKET",
        "lat": 56.83870277777778,
        "lon": 66.76040555555555
    },
    {
        "name": "ITAKA",
        "lat": 43.873244444444445,
        "lon": 49.49868611111111
    },
    {
        "name": "ITINA",
        "lat": 55.816649999999996,
        "lon": 38.664766666666665
    },
    {
        "name": "ITUNA",
        "lat": 54.20019166666667,
        "lon": 55.83186111111112
    },
    {
        "name": "ITVIS",
        "lat": 53.76360277777778,
        "lon": 140.83959444444446
    },
    {
        "name": "IVADA",
        "lat": 49.083561111111116,
        "lon": 134.4676388888889
    },
    {
        "name": "IVRAS",
        "lat": 55.38383888888889,
        "lon": 92.46631388888889
    },
    {
        "name": "KABAT",
        "lat": 59.39541388888889,
        "lon": 65.87694722222221
    },
    {
        "name": "KADAT",
        "lat": 65.49973888888888,
        "lon": -171.71713333333332
    },
    {
        "name": "KANAL",
        "lat": 62.150549999999996,
        "lon": 73.61545
    },
    {
        "name": "KANB",
        "lat": 47.61654166666667,
        "lon": 41.115119444444446
    },
    {
        "name": "KANER",
        "lat": 61.000508333333336,
        "lon": 71.86542777777777
    },
    {
        "name": "KANET",
        "lat": 58.73328333333333,
        "lon": 33.46452777777778
    },
    {
        "name": "KANOK",
        "lat": 67.52168333333333,
        "lon": 175.08797777777778
    },
    {
        "name": "KANON",
        "lat": 49.533233333333335,
        "lon": 40.465050000000005
    },
    {
        "name": "KARAT",
        "lat": 42.68143333333333,
        "lon": 39.27022222222222
    },
    {
        "name": "KARNI",
        "lat": 46.954930555555556,
        "lon": 46.14688611111111
    },
    {
        "name": "KARSI",
        "lat": 53.38545833333333,
        "lon": 92.04465
    },
    {
        "name": "KEBUL",
        "lat": 60.39324444444444,
        "lon": 29.57436388888889
    },
    {
        "name": "KEDOR",
        "lat": 63.502097222222226,
        "lon": 59.96820833333334
    },
    {
        "name": "KEDRA",
        "lat": 54.38381388888889,
        "lon": 91.49962222222223
    },
    {
        "name": "KEGIR",
        "lat": 56.77535555555556,
        "lon": 65.34036388888889
    },
    {
        "name": "KEGUL",
        "lat": 63.335077777777784,
        "lon": 36.61425
    },
    {
        "name": "KEGUP",
        "lat": 61.29502222222222,
        "lon": 35.334386111111115
    },
    {
        "name": "KELES",
        "lat": 50.87541111111111,
        "lon": 105.89678888888889
    },
    {
        "name": "KELOK",
        "lat": 56.912194444444445,
        "lon": 88.48781666666667
    },
    {
        "name": "KELUB",
        "lat": 50.843333333333334,
        "lon": 39.4
    },
    {
        "name": "KEMID",
        "lat": 58.74173888888889,
        "lon": 41.14299166666667
    },
    {
        "name": "KENEN",
        "lat": 46.87983055555556,
        "lon": 38.75510833333333
    },
    {
        "name": "KENGA",
        "lat": 56.320475,
        "lon": 80.70088333333334
    },
    {
        "name": "KENOM",
        "lat": 46.84166666666667,
        "lon": 141.80166666666668
    },
    {
        "name": "KEPET",
        "lat": 61.31506666666667,
        "lon": 38.0011
    },
    {
        "name": "KEPOL",
        "lat": 43.03308888888889,
        "lon": 37.988530555555556
    },
    {
        "name": "KERED",
        "lat": 54.76173611111111,
        "lon": 45.639944444444446
    },
    {
        "name": "KERET",
        "lat": 46.52013888888889,
        "lon": 138.06768333333332
    },
    {
        "name": "KERIB",
        "lat": 54.54190833333333,
        "lon": 59.34193611111111
    },
    {
        "name": "KEROM",
        "lat": 56.013691666666666,
        "lon": 67.29544722222222
    },
    {
        "name": "KERUK",
        "lat": 60.72231111111111,
        "lon": 104.34176111111111
    },
    {
        "name": "KESAN",
        "lat": 42.97510833333334,
        "lon": 131.67080277777777
    },
    {
        "name": "KESEB",
        "lat": 60.71666666666667,
        "lon": 67.54166666666667
    },
    {
        "name": "KESED",
        "lat": 55.27048055555556,
        "lon": 86.10775555555556
    },
    {
        "name": "KESIK",
        "lat": 59.750252777777774,
        "lon": 52.081519444444446
    },
    {
        "name": "KESOP",
        "lat": 58.525574999999996,
        "lon": 90.87455277777777
    },
    {
        "name": "KESUM",
        "lat": 54.26215555555556,
        "lon": 96.258125
    },
    {
        "name": "KETAK",
        "lat": 52.75208888888889,
        "lon": 86.57447222222221
    },
    {
        "name": "KETEM",
        "lat": 55.34884166666667,
        "lon": 92.99133333333333
    },
    {
        "name": "KIMBA",
        "lat": 56.35551666666667,
        "lon": 115.68550277777778
    },
    {
        "name": "KIRON",
        "lat": 59.96657777777778,
        "lon": 30.047733333333333
    },
    {
        "name": "KIRUN",
        "lat": 58.72856111111111,
        "lon": 152.70510555555555
    },
    {
        "name": "KISEL",
        "lat": 46.00321388888889,
        "lon": 43.67186944444444
    },
    {
        "name": "KN01",
        "lat": 60.03327222222222,
        "lon": 31.54775
    },
    {
        "name": "KOBON",
        "lat": 45.349825,
        "lon": 40.198502777777776
    },
    {
        "name": "KOGUM",
        "lat": 62.19055833333333,
        "lon": 74.53381666666667
    },
    {
        "name": "KOKES",
        "lat": 54.74989722222222,
        "lon": 170.1052472222222
    },
    {
        "name": "KOKUN",
        "lat": 55.27504166666667,
        "lon": 161.27679722222223
    },
    {
        "name": "KOLBA",
        "lat": 45.949866666666665,
        "lon": 42.58185277777778
    },
    {
        "name": "KOLED",
        "lat": 55.45323611111112,
        "lon": 33.76637777777778
    },
    {
        "name": "KOLIR",
        "lat": 55.703575,
        "lon": 57.36851111111111
    },
    {
        "name": "KOLPI",
        "lat": 59.749919444444444,
        "lon": 30.647758333333332
    },
    {
        "name": "KOMBI",
        "lat": 72.08415555555555,
        "lon": 82.73204722222222
    },
    {
        "name": "KOMEG",
        "lat": 62.00875,
        "lon": 143.1483333333333
    },
    {
        "name": "KOMID",
        "lat": 58.56371111111111,
        "lon": 63.89358611111111
    },
    {
        "name": "KOMOS",
        "lat": 52.216686111111116,
        "lon": 45.52504166666667
    },
    {
        "name": "KOMOV",
        "lat": 65.35354722222222,
        "lon": 42.70253888888889
    },
    {
        "name": "KONIK",
        "lat": 64.7674,
        "lon": 101.3499611111111
    },
    {
        "name": "KONOK",
        "lat": 61.83012222222222,
        "lon": 40.84611944444445
    },
    {
        "name": "KOPLI",
        "lat": 66.10840833333333,
        "lon": 170.4594
    },
    {
        "name": "KOPOK",
        "lat": 49.96703333333333,
        "lon": 88.63289999999999
    },
    {
        "name": "KOREB",
        "lat": 52.98323055555556,
        "lon": 36.09818888888889
    },
    {
        "name": "KORIN",
        "lat": 58.09825,
        "lon": 32.07288055555556
    },
    {
        "name": "KOROT",
        "lat": 51.81492222222222,
        "lon": 39.22828333333334
    },
    {
        "name": "KOSAG",
        "lat": 54.35181666666667,
        "lon": 52.1551
    },
    {
        "name": "KOTAG",
        "lat": 56.00686666666667,
        "lon": 53.538402777777776
    },
    {
        "name": "KOTEL",
        "lat": 68.27214166666667,
        "lon": 147.80563333333333
    },
    {
        "name": "KOTIB",
        "lat": 56.083869444444446,
        "lon": 99.29989444444445
    },
    {
        "name": "KOTOD",
        "lat": 44.53990833333333,
        "lon": 48.00364444444445
    },
    {
        "name": "KOVUD",
        "lat": 59.47040555555556,
        "lon": 64.81524444444445
    },
    {
        "name": "KP01",
        "lat": 61.53342222222222,
        "lon": 38.96443611111111
    },
    {
        "name": "KR01",
        "lat": 59.44993888888889,
        "lon": 32.04779722222222
    },
    {
        "name": "KREPO",
        "lat": 59.93326388888889,
        "lon": 31.064416666666666
    },
    {
        "name": "KROTA",
        "lat": 69.46676111111111,
        "lon": 31.863469444444444
    },
    {
        "name": "KS01",
        "lat": 55.83329722222223,
        "lon": 37.264744444444446
    },
    {
        "name": "KS02",
        "lat": 53.68343333333333,
        "lon": 49.431733333333334
    },
    {
        "name": "KUBEN",
        "lat": 59.950069444444445,
        "lon": 39.497886111111114
    },
    {
        "name": "KUDAR",
        "lat": 52.300441666666664,
        "lon": 106.48348055555556
    },
    {
        "name": "KUDER",
        "lat": 53.825050000000005,
        "lon": 158.71001666666666
    },
    {
        "name": "KUDIM",
        "lat": 56.718205555555556,
        "lon": 30.719608333333333
    },
    {
        "name": "KUDUK",
        "lat": 57.46194166666667,
        "lon": 57.143433333333334
    },
    {
        "name": "KUFAN",
        "lat": 41.95483611111111,
        "lon": 46.28422777777777
    },
    {
        "name": "KUGED",
        "lat": 62.08166666666667,
        "lon": 79.0
    },
    {
        "name": "KUGOM",
        "lat": 65.12897222222222,
        "lon": 127.59788333333333
    },
    {
        "name": "KUKED",
        "lat": 54.852133333333335,
        "lon": 85.34606666666666
    },
    {
        "name": "KUKEL",
        "lat": 49.216905555555556,
        "lon": 133.4509472222222
    },
    {
        "name": "KULAM",
        "lat": 57.97833333333333,
        "lon": 66.74
    },
    {
        "name": "KULED",
        "lat": 45.44983055555555,
        "lon": 40.565172222222216
    },
    {
        "name": "KULEG",
        "lat": 55.32993611111112,
        "lon": 36.09308611111111
    },
    {
        "name": "KULOM",
        "lat": 45.816513888888885,
        "lon": 41.431841666666664
    },
    {
        "name": "KULUR",
        "lat": 62.583983333333336,
        "lon": 116.80065277777777
    },
    {
        "name": "KUMEL",
        "lat": 66.28346388888889,
        "lon": 36.863975
    },
    {
        "name": "KUMEN",
        "lat": 64.28353333333334,
        "lon": 42.964308333333335
    },
    {
        "name": "KUMEP",
        "lat": 57.04026111111111,
        "lon": 56.606769444444446
    },
    {
        "name": "KUMIR",
        "lat": 61.76727777777778,
        "lon": 83.54919722222222
    },
    {
        "name": "KUMOD",
        "lat": 58.327200000000005,
        "lon": 82.93258611111112
    },
    {
        "name": "KUMOL",
        "lat": 53.358225000000004,
        "lon": 35.283163888888886
    },
    {
        "name": "KUNAB",
        "lat": 50.818333333333335,
        "lon": 143.445
    },
    {
        "name": "KUNAP",
        "lat": 58.626666666666665,
        "lon": 31.383333333333333
    },
    {
        "name": "KUNAT",
        "lat": 61.88693333333333,
        "lon": 50.228011111111115
    },
    {
        "name": "KUNIK",
        "lat": 61.85385,
        "lon": 133.64631944444443
    },
    {
        "name": "KUNIP",
        "lat": 44.86653611111111,
        "lon": 44.35524166666667
    },
    {
        "name": "KUPON",
        "lat": 59.75051111111111,
        "lon": 75.28226388888889
    },
    {
        "name": "KURAK",
        "lat": 62.78383611111111,
        "lon": 136.85148333333333
    },
    {
        "name": "KURAS",
        "lat": 53.42833333333333,
        "lon": 54.251666666666665
    },
    {
        "name": "KURBA",
        "lat": 52.495441666666665,
        "lon": 109.88693055555557
    },
    {
        "name": "KURIN",
        "lat": 44.82,
        "lon": 136.095
    },
    {
        "name": "KURIP",
        "lat": 66.65974722222222,
        "lon": -171.347
    },
    {
        "name": "KUSED",
        "lat": 59.12693888888889,
        "lon": 149.96005277777778
    },
    {
        "name": "KUSET",
        "lat": 68.18738333333334,
        "lon": 78.82873055555555
    },
    {
        "name": "KUTAL",
        "lat": 65.19135,
        "lon": -168.97049444444445
    },
    {
        "name": "KUTAM",
        "lat": 64.23067222222222,
        "lon": 84.33582777777778
    },
    {
        "name": "KUTEB",
        "lat": 51.75154722222222,
        "lon": 36.29490833333333
    },
    {
        "name": "KUTET",
        "lat": 79.5293361111111,
        "lon": 91.07374166666666
    },
    {
        "name": "KUTON",
        "lat": 44.269780555555556,
        "lon": 38.315172222222216
    },
    {
        "name": "KUTUL",
        "lat": 55.04,
        "lon": 90.36999999999999
    },
    {
        "name": "KUTUR",
        "lat": 58.78177222222222,
        "lon": 43.14636111111111
    },
    {
        "name": "KZ01",
        "lat": 56.335458333333335,
        "lon": 78.35913333333333
    },
    {
        "name": "LA01",
        "lat": 65.58305833333333,
        "lon": -171.01045555555555
    },
    {
        "name": "LABIK",
        "lat": 58.58058888888889,
        "lon": 94.85304166666666
    },
    {
        "name": "LABUG",
        "lat": 45.35825,
        "lon": 47.45861388888889
    },
    {
        "name": "LADIL",
        "lat": 59.42010833333333,
        "lon": 42.52964722222222
    },
    {
        "name": "LADOG",
        "lat": 57.705575,
        "lon": 103.80339722222222
    },
    {
        "name": "LADOK",
        "lat": 59.86833888888889,
        "lon": 35.861161111111116
    },
    {
        "name": "LADOV",
        "lat": 58.802191666666666,
        "lon": 80.07246944444444
    },
    {
        "name": "LADUG",
        "lat": 53.21505277777778,
        "lon": 46.58835833333334
    },
    {
        "name": "LAFAT",
        "lat": 65.05893611111111,
        "lon": 72.78528055555556
    },
    {
        "name": "LAGAT",
        "lat": 65.99848888888889,
        "lon": 38.48404166666667
    },
    {
        "name": "LAGET",
        "lat": 60.90666944444445,
        "lon": 34.51606666666667
    },
    {
        "name": "LAGNI",
        "lat": 65.66726111111112,
        "lon": 70.58181944444443
    },
    {
        "name": "LAGOD",
        "lat": 53.829888888888895,
        "lon": 34.593133333333334
    },
    {
        "name": "LAGOM",
        "lat": 66.97333333333333,
        "lon": 54.28333333333333
    },
    {
        "name": "LAGOR",
        "lat": 57.48383333333334,
        "lon": 123.95082222222223
    },
    {
        "name": "LAKIN",
        "lat": 54.78862222222222,
        "lon": 141.19463611111112
    },
    {
        "name": "LAKIR",
        "lat": 60.22552777777778,
        "lon": 128.40939444444444
    },
    {
        "name": "LAKOD",
        "lat": 54.64970833333333,
        "lon": 22.747975
    },
    {
        "name": "LAKUD",
        "lat": 52.46327777777778,
        "lon": 39.816599999999994
    },
    {
        "name": "LAKUM",
        "lat": 57.630047222222224,
        "lon": 163.69695833333333
    },
    {
        "name": "LALEP",
        "lat": 51.271825,
        "lon": 57.90533611111111
    },
    {
        "name": "LALET",
        "lat": 50.090225000000004,
        "lon": 137.23606666666666
    },
    {
        "name": "LALIR",
        "lat": 54.81041388888889,
        "lon": 127.26421111111111
    },
    {
        "name": "LALOM",
        "lat": 55.90718888888889,
        "lon": 93.82469166666667
    },
    {
        "name": "LAMAG",
        "lat": 52.51656111111111,
        "lon": 36.46488055555556
    },
    {
        "name": "LAMEG",
        "lat": 58.705530555555555,
        "lon": 81.16417777777778
    },
    {
        "name": "LAMET",
        "lat": 43.349775,
        "lon": 39.08853888888889
    },
    {
        "name": "LAMKA",
        "lat": 43.400102777777775,
        "lon": 133.8841972222222
    },
    {
        "name": "LAMTU",
        "lat": 57.25346388888889,
        "lon": 46.75151944444445
    },
    {
        "name": "LANBI",
        "lat": 49.253677777777774,
        "lon": 87.48120277777778
    },
    {
        "name": "LANEP",
        "lat": 46.83349166666667,
        "lon": 136.3343138888889
    },
    {
        "name": "LANIL",
        "lat": 57.91184166666667,
        "lon": 49.08653888888889
    },
    {
        "name": "LANIT",
        "lat": 49.816583333333334,
        "lon": 41.148383333333335
    },
    {
        "name": "LANOR",
        "lat": 54.09360277777778,
        "lon": 62.67704166666667
    },
    {
        "name": "LANRA",
        "lat": 58.26058333333334,
        "lon": 95.64141111111111
    },
    {
        "name": "LANRI",
        "lat": 50.66685,
        "lon": 142.76789166666669
    },
    {
        "name": "LANTO",
        "lat": 55.216925,
        "lon": 59.698588888888885
    },
    {
        "name": "LAPAK",
        "lat": 55.43216388888889,
        "lon": 88.90285277777778
    },
    {
        "name": "LAPEK",
        "lat": 59.900083333333335,
        "lon": 40.54291111111111
    },
    {
        "name": "LAPTI",
        "lat": 66.98907777777778,
        "lon": 87.00586944444444
    },
    {
        "name": "LAPTO",
        "lat": 42.63149166666667,
        "lon": 44.188624999999995
    },
    {
        "name": "LARIN",
        "lat": 44.59984722222222,
        "lon": 43.01856111111111
    },
    {
        "name": "LARNA",
        "lat": 54.200472222222224,
        "lon": 89.86623333333333
    },
    {
        "name": "LARSA",
        "lat": 63.99306111111111,
        "lon": -172.375625
    },
    {
        "name": "LARTU",
        "lat": 61.99552222222222,
        "lon": 70.97035277777778
    },
    {
        "name": "LASPI",
        "lat": 63.263955555555555,
        "lon": 124.45100555555555
    },
    {
        "name": "LATAK",
        "lat": 46.93339722222222,
        "lon": 146.75789166666667
    },
    {
        "name": "LATAS",
        "lat": 54.412105555555556,
        "lon": 122.08236388888888
    },
    {
        "name": "LATEN",
        "lat": 72.50014444444444,
        "lon": 32.07961111111111
    },
    {
        "name": "LATRI",
        "lat": 48.14987222222222,
        "lon": 40.04842222222222
    },
    {
        "name": "LEBAT",
        "lat": 52.685069444444444,
        "lon": 48.54175
    },
    {
        "name": "LEBED",
        "lat": 57.05871111111111,
        "lon": 66.91540277777779
    },
    {
        "name": "LEBMI",
        "lat": 59.01694166666667,
        "lon": 54.648291666666665
    },
    {
        "name": "LEBNA",
        "lat": 60.717286111111115,
        "lon": 114.8172
    },
    {
        "name": "LEBSI",
        "lat": 52.23668888888889,
        "lon": 45.608375
    },
    {
        "name": "LEBTA",
        "lat": 44.83179166666667,
        "lon": 135.07924722222222
    },
    {
        "name": "LEDIS",
        "lat": 54.663777777777774,
        "lon": 122.14070277777779
    },
    {
        "name": "LEDNA",
        "lat": 64.71693888888889,
        "lon": 47.07438055555556
    },
    {
        "name": "LEDNI",
        "lat": 55.649969444444444,
        "lon": 37.84809722222222
    },
    {
        "name": "LEDOR",
        "lat": 56.66663888888889,
        "lon": 36.91469722222222
    },
    {
        "name": "LEDRU",
        "lat": 52.77007222222222,
        "lon": 155.78491944444445
    },
    {
        "name": "LEGNA",
        "lat": 45.321508333333334,
        "lon": 41.50518888888889
    },
    {
        "name": "LEKBI",
        "lat": 52.63192222222222,
        "lon": 140.04787222222222
    },
    {
        "name": "LEKMA",
        "lat": 56.356969444444445,
        "lon": 142.95973888888886
    },
    {
        "name": "LEKNI",
        "lat": 59.74353333333333,
        "lon": 155.93690833333335
    },
    {
        "name": "LEKPI",
        "lat": 44.525,
        "lon": 39.480000000000004
    },
    {
        "name": "LEMBA",
        "lat": 59.67347777777778,
        "lon": 159.655325
    },
    {
        "name": "LEMBO",
        "lat": 50.789858333333335,
        "lon": 35.871608333333334
    },
    {
        "name": "LEMGA",
        "lat": 54.65,
        "lon": 50.97666666666667
    },
    {
        "name": "LEMRI",
        "lat": 69.25582777777778,
        "lon": 103.11505555555554
    },
    {
        "name": "LEMRU",
        "lat": 55.79161666666666,
        "lon": 36.464736111111115
    },
    {
        "name": "LENGA",
        "lat": 59.32155277777778,
        "lon": 29.1811
    },
    {
        "name": "LENLI",
        "lat": 56.22354444444445,
        "lon": 54.115072222222224
    },
    {
        "name": "LEPES",
        "lat": 69.9639638888889,
        "lon": 66.184625
    },
    {
        "name": "LEPRO",
        "lat": 47.90516111111111,
        "lon": 139.14606944444444
    },
    {
        "name": "LERTA",
        "lat": 60.90355833333333,
        "lon": 48.49969166666667
    },
    {
        "name": "LETBA",
        "lat": 65.11683888888888,
        "lon": 40.44250833333333
    },
    {
        "name": "LETBI",
        "lat": 50.198727777777776,
        "lon": 103.5017111111111
    },
    {
        "name": "LETIK",
        "lat": 55.20035277777778,
        "lon": 68.53217777777778
    },
    {
        "name": "LETRU",
        "lat": 53.10485277777778,
        "lon": 33.16648055555555
    },
    {
        "name": "LETSA",
        "lat": 53.83833333333334,
        "lon": 156.97
    },
    {
        "name": "LEVOK",
        "lat": 60.675638888888884,
        "lon": 96.11474444444444
    },
    {
        "name": "LIBMA",
        "lat": 56.03869722222222,
        "lon": 67.67379166666667
    },
    {
        "name": "LIDKA",
        "lat": 55.460522222222224,
        "lon": 102.38834166666668
    },
    {
        "name": "LIDUS",
        "lat": 47.04826666666666,
        "lon": 46.26688333333333
    },
    {
        "name": "LIGMA",
        "lat": 64.75833333333334,
        "lon": 114.85
    },
    {
        "name": "LIGRI",
        "lat": 63.20047777777778,
        "lon": 64.43171666666667
    },
    {
        "name": "LIKOK",
        "lat": 64.52639166666667,
        "lon": -171.69223611111113
    },
    {
        "name": "LIKON",
        "lat": 47.65679166666666,
        "lon": 142.03946666666667
    },
    {
        "name": "LIKOT",
        "lat": 59.100572222222226,
        "lon": 87.20273611111111
    },
    {
        "name": "LIKUN",
        "lat": 76.59587777777777,
        "lon": 78.68462222222223
    },
    {
        "name": "LIMAK",
        "lat": 58.843183333333336,
        "lon": 27.465555555555554
    },
    {
        "name": "LIMAS",
        "lat": 44.208105555555555,
        "lon": 37.82016666666667
    },
    {
        "name": "LIMKI",
        "lat": 58.15058611111111,
        "lon": 102.64168611111111
    },
    {
        "name": "LIMUS",
        "lat": 70.90350833333333,
        "lon": 34.97164444444444
    },
    {
        "name": "LINOK",
        "lat": 43.393119444444444,
        "lon": 39.99855
    },
    {
        "name": "LINRI",
        "lat": 54.15674166666667,
        "lon": 46.90166111111111
    },
    {
        "name": "LIPKI",
        "lat": 65.1419,
        "lon": 44.16426388888889
    },
    {
        "name": "LIRSI",
        "lat": 52.88820277777778,
        "lon": 34.45650555555556
    },
    {
        "name": "LISBI",
        "lat": 67.63882777777778,
        "lon": 58.68617777777777
    },
    {
        "name": "LISKI",
        "lat": 70.40475,
        "lon": -168.96811666666667
    },
    {
        "name": "LISMU",
        "lat": 46.37322777777778,
        "lon": 44.33020277777778
    },
    {
        "name": "LISOL",
        "lat": 47.62847222222222,
        "lon": 140.882775
    },
    {
        "name": "LITBI",
        "lat": 46.88843611111111,
        "lon": 142.7178
    },
    {
        "name": "LITKE",
        "lat": 70.93397777777778,
        "lon": 65.75616944444444
    },
    {
        "name": "LITMA",
        "lat": 62.555566666666664,
        "lon": 74.87381388888888
    },
    {
        "name": "LITON",
        "lat": 56.605361111111115,
        "lon": 66.36873333333332
    },
    {
        "name": "LITUN",
        "lat": 59.33382777777778,
        "lon": 74.49891666666667
    },
    {
        "name": "LOBIR",
        "lat": 53.24711111111111,
        "lon": 88.96121111111111
    },
    {
        "name": "LODBI",
        "lat": 43.511425,
        "lon": 37.62351388888889
    },
    {
        "name": "LODKA",
        "lat": 64.37196666666667,
        "lon": 49.337805555555555
    },
    {
        "name": "LODKI",
        "lat": 62.004286111111114,
        "lon": 119.33828888888888
    },
    {
        "name": "LOGAT",
        "lat": 72.27753888888888,
        "lon": 91.89763611111111
    },
    {
        "name": "LOGMA",
        "lat": 55.78706388888889,
        "lon": 71.92893333333333
    },
    {
        "name": "LOGRI",
        "lat": 65.30227222222221,
        "lon": 131.70140555555554
    },
    {
        "name": "LOGRU",
        "lat": 53.80333333333333,
        "lon": 88.84166666666667
    },
    {
        "name": "LONKA",
        "lat": 54.7505,
        "lon": 96.66646944444445
    },
    {
        "name": "LONZA",
        "lat": 63.10400277777778,
        "lon": 89.32775
    },
    {
        "name": "LOPTA",
        "lat": 55.55713333333333,
        "lon": 122.2123888888889
    },
    {
        "name": "LOREK",
        "lat": 60.35053333333334,
        "lon": 76.48228888888889
    },
    {
        "name": "LORKI",
        "lat": 65.45170555555556,
        "lon": 171.99769166666664
    },
    {
        "name": "LORNA",
        "lat": 43.64982777777778,
        "lon": 42.88191666666667
    },
    {
        "name": "LUBOK",
        "lat": 44.916805555555555,
        "lon": 133.86755277777777
    },
    {
        "name": "LUGEP",
        "lat": 46.41833333333333,
        "lon": 45.498333333333335
    },
    {
        "name": "LUGET",
        "lat": 55.06210833333333,
        "lon": 79.820875
    },
    {
        "name": "LUGIK",
        "lat": 59.71708888888889,
        "lon": 65.93193611111111
    },
    {
        "name": "LUGUN",
        "lat": 67.16000000000001,
        "lon": 89.10833333333333
    },
    {
        "name": "LUKER",
        "lat": 53.20835833333334,
        "lon": 44.47331666666667
    },
    {
        "name": "LUKOD",
        "lat": 57.401808333333335,
        "lon": 47.256525
    },
    {
        "name": "LUKOS",
        "lat": 55.59995833333333,
        "lon": 37.27142222222222
    },
    {
        "name": "LUKOT",
        "lat": 54.81213611111111,
        "lon": 85.92442222222223
    },
    {
        "name": "LULAN",
        "lat": 51.80876388888888,
        "lon": 107.44184444444444
    },
    {
        "name": "LULED",
        "lat": 51.184866666666665,
        "lon": 36.04326111111111
    },
    {
        "name": "LULIT",
        "lat": 62.02886111111111,
        "lon": 71.47036944444444
    },
    {
        "name": "LUMAG",
        "lat": 59.91027777777778,
        "lon": 150.71844722222224
    },
    {
        "name": "LUMAK",
        "lat": 58.21666666666667,
        "lon": 41.485
    },
    {
        "name": "LUMER",
        "lat": 54.02208888888889,
        "lon": 80.76426111111111
    },
    {
        "name": "LUMIR",
        "lat": 63.665,
        "lon": 167.37666666666667
    },
    {
        "name": "LUMON",
        "lat": 65.05045833333332,
        "lon": 144.57190555555556
    },
    {
        "name": "LUNAD",
        "lat": 64.735,
        "lon": 177.73833333333332
    },
    {
        "name": "LUNED",
        "lat": 51.92358055555555,
        "lon": 139.26950000000002
    },
    {
        "name": "LUNEP",
        "lat": 63.18391666666666,
        "lon": 75.26880555555556
    },
    {
        "name": "LUNER",
        "lat": 50.896630555555554,
        "lon": 43.28171388888889
    },
    {
        "name": "LUNIB",
        "lat": 54.87352222222222,
        "lon": 150.0015361111111
    },
    {
        "name": "LUNIL",
        "lat": 63.323747222222224,
        "lon": 145.42681944444445
    },
    {
        "name": "LUNIR",
        "lat": 58.63333333333333,
        "lon": 63.30166666666666
    },
    {
        "name": "LUNOK",
        "lat": 60.266577777777776,
        "lon": 29.75771111111111
    },
    {
        "name": "LURAK",
        "lat": 68.71573611111111,
        "lon": 79.97042777777779
    },
    {
        "name": "LURAM",
        "lat": 66.76833333333333,
        "lon": 37.845
    },
    {
        "name": "LURAS",
        "lat": 43.47809166666667,
        "lon": 37.78518611111111
    },
    {
        "name": "LUREB",
        "lat": 59.57,
        "lon": 33.751666666666665
    },
    {
        "name": "LURED",
        "lat": 42.483333333333334,
        "lon": 135.43833333333333
    },
    {
        "name": "LUREG",
        "lat": 73.75333333333333,
        "lon": 36.68333333333333
    },
    {
        "name": "LUREM",
        "lat": 52.39822777777778,
        "lon": 36.556552777777775
    },
    {
        "name": "LURES",
        "lat": 66.2473138888889,
        "lon": 129.0013361111111
    },
    {
        "name": "LURET",
        "lat": 70.62551666666666,
        "lon": 147.89923888888887
    },
    {
        "name": "LURIN",
        "lat": 55.85219722222222,
        "lon": 97.91151111111111
    },
    {
        "name": "LUSAK",
        "lat": 53.203633333333336,
        "lon": 136.87113333333335
    },
    {
        "name": "LUSET",
        "lat": 55.946666666666665,
        "lon": 59.013333333333335
    },
    {
        "name": "LUSOR",
        "lat": 69.31405,
        "lon": 128.33315277777777
    },
    {
        "name": "LUSOT",
        "lat": 69.04833333333333,
        "lon": 106.54166666666667
    },
    {
        "name": "LUTEG",
        "lat": 55.49511666666667,
        "lon": 156.1350361111111
    },
    {
        "name": "LUTEL",
        "lat": 46.35666666666667,
        "lon": 135.73666666666665
    },
    {
        "name": "LUTEM",
        "lat": 71.8902138888889,
        "lon": 168.00349722222222
    },
    {
        "name": "LUTIN",
        "lat": 46.03,
        "lon": 45.03666666666666
    },
    {
        "name": "MABIL",
        "lat": 50.64707222222222,
        "lon": 103.45170833333334
    },
    {
        "name": "MABIN",
        "lat": 63.882263888888886,
        "lon": 75.08210277777778
    },
    {
        "name": "MABIR",
        "lat": 52.64982222222222,
        "lon": 31.548147222222223
    },
    {
        "name": "MADAN",
        "lat": 54.93875833333333,
        "lon": 126.36751666666666
    },
    {
        "name": "MADOD",
        "lat": 52.940011111111104,
        "lon": 43.94665277777777
    },
    {
        "name": "MAGDU",
        "lat": 52.856836111111114,
        "lon": 56.076911111111116
    },
    {
        "name": "MAGEM",
        "lat": 64.27013055555555,
        "lon": 38.78588055555555
    },
    {
        "name": "MAGOK",
        "lat": 58.043375,
        "lon": 39.79133888888889
    },
    {
        "name": "MAKIN",
        "lat": 56.81382222222222,
        "lon": 123.13244722222221
    },
    {
        "name": "MAKIS",
        "lat": 53.35525,
        "lon": 141.85960833333334
    },
    {
        "name": "MAKOD",
        "lat": 52.69821666666666,
        "lon": 35.50819444444444
    },
    {
        "name": "MAKSI",
        "lat": 55.88993611111111,
        "lon": 35.554716666666664
    },
    {
        "name": "MALIB",
        "lat": 56.68333333333333,
        "lon": 65.64166666666668
    },
    {
        "name": "MALUK",
        "lat": 59.58992777777778,
        "lon": 31.404444444444444
    },
    {
        "name": "MALUS",
        "lat": 54.5,
        "lon": 52.486666666666665
    },
    {
        "name": "MALUT",
        "lat": 51.926561111111106,
        "lon": 37.133247222222224
    },
    {
        "name": "MAMUG",
        "lat": 63.825361111111114,
        "lon": 54.321333333333335
    },
    {
        "name": "MANEB",
        "lat": 57.295341666666666,
        "lon": 63.02860833333333
    },
    {
        "name": "MANIT",
        "lat": 42.865075000000004,
        "lon": 135.7709
    },
    {
        "name": "MANIV",
        "lat": 58.40495277777778,
        "lon": 33.974555555555554
    },
    {
        "name": "MAPEG",
        "lat": 52.93666666666666,
        "lon": 155.11166666666665
    },
    {
        "name": "MAPID",
        "lat": 57.970475,
        "lon": 75.79233611111111
    },
    {
        "name": "MARAT",
        "lat": 43.84650833333333,
        "lon": 43.62025555555556
    },
    {
        "name": "MAROL",
        "lat": 58.71671388888889,
        "lon": 39.43129444444444
    },
    {
        "name": "MAROT",
        "lat": 62.467275,
        "lon": 123.83428611111111
    },
    {
        "name": "MASIB",
        "lat": 54.85716111111111,
        "lon": 92.07130277777777
    },
    {
        "name": "MASUM",
        "lat": 49.16661944444444,
        "lon": 44.665127777777776
    },
    {
        "name": "MATAK",
        "lat": 51.14541944444444,
        "lon": 103.38170833333332
    },
    {
        "name": "MATEK",
        "lat": 50.79996388888889,
        "lon": 43.29838611111111
    },
    {
        "name": "MEDER",
        "lat": 62.900352777777776,
        "lon": 54.96474722222222
    },
    {
        "name": "MEDIG",
        "lat": 67.65900833333333,
        "lon": 129.35143333333332
    },
    {
        "name": "MEDIK",
        "lat": 50.08369166666667,
        "lon": 118.11717777777777
    },
    {
        "name": "MEDUS",
        "lat": 67.89,
        "lon": 117.16000000000001
    },
    {
        "name": "MEGAP",
        "lat": 52.985061111111115,
        "lon": 47.45838333333334
    },
    {
        "name": "MEGIN",
        "lat": 54.69028888888889,
        "lon": 63.425377777777776
    },
    {
        "name": "MEKSI",
        "lat": 59.110508333333335,
        "lon": 76.49399444444444
    },
    {
        "name": "MEMBA",
        "lat": 65.85063333333333,
        "lon": 74.46531388888889
    },
    {
        "name": "MEMUR",
        "lat": 68.7491111111111,
        "lon": 86.37577222222221
    },
    {
        "name": "MESKO",
        "lat": 69.05907499999999,
        "lon": 79.76873055555555
    },
    {
        "name": "METAT",
        "lat": 60.58343888888889,
        "lon": 41.21454722222222
    },
    {
        "name": "MIGRO",
        "lat": 64.74,
        "lon": 137.11333333333332
    },
    {
        "name": "MIKET",
        "lat": 54.433816666666665,
        "lon": 92.06630833333332
    },
    {
        "name": "MIMRA",
        "lat": 48.93322222222222,
        "lon": 40.41506666666667
    },
    {
        "name": "MININ",
        "lat": 71.6991,
        "lon": 76.49669166666666
    },
    {
        "name": "MINOR",
        "lat": 57.250483333333335,
        "lon": 79.06580277777778
    },
    {
        "name": "MINPU",
        "lat": 44.22484166666667,
        "lon": 43.08190555555556
    },
    {
        "name": "MIROS",
        "lat": 62.27378888888889,
        "lon": 64.01841944444445
    },
    {
        "name": "MISLU",
        "lat": 52.8354,
        "lon": 81.74931111111111
    },
    {
        "name": "MISOR",
        "lat": 69.87075277777777,
        "lon": 79.26198611111111
    },
    {
        "name": "MITBI",
        "lat": 53.208333333333336,
        "lon": 83.27
    },
    {
        "name": "MITMU",
        "lat": 56.02157222222222,
        "lon": 33.43134722222222
    },
    {
        "name": "MOBIT",
        "lat": 43.93978055555555,
        "lon": 38.73518611111111
    },
    {
        "name": "MOGIS",
        "lat": 48.06850555555556,
        "lon": 138.34938611111113
    },
    {
        "name": "MOKET",
        "lat": 53.30868333333333,
        "lon": 131.415975
    },
    {
        "name": "MOLAG",
        "lat": 68.52747777777778,
        "lon": 98.61479999999999
    },
    {
        "name": "MOLEB",
        "lat": 70.22166666666666,
        "lon": 173.15166666666667
    },
    {
        "name": "MOLIK",
        "lat": 44.36646388888889,
        "lon": 39.44851666666666
    },
    {
        "name": "MOLUB",
        "lat": 59.563294444444445,
        "lon": 76.48564722222223
    },
    {
        "name": "MOLUT",
        "lat": 55.21194722222223,
        "lon": 142.9263638888889
    },